[{"code":"12","description":null,"id":12,"isclosed":false,"ispublic":true,"latitude":-31.960937,"longitude":115.788431,"name":"State Forensic Mental Health Service","peer":null,"phncode":501,"phnname":"Perth North","state":"WA"},{"code":"13","description":null,"id":13,"isclosed":false,"ispublic":true,"latitude":-33.96907,"longitude":151.243206,"name":"Justice Health Services","peer":null,"phncode":101,"phnname":"Central and Eastern Sydney","state":"NSW"},{"code":"14","description":null,"id":14,"isclosed":false,"ispublic":true,"latitude":-33.801554,"longitude":150.991759,"name":"The Children's Hospital at Westmead","peer":null,"phncode":103,"phnname":"Western Sydney","state":"NSW"},{"code":"15","description":null,"id":15,"isclosed":false,"ispublic":true,"latitude":-33.917179,"longitude":151.238334,"name":"Sydney Children's Hospital","peer":null,"phncode":101,"phnname":"Central and Eastern Sydney","state":"NSW"},{"code":"16","description":null,"id":16,"isclosed":false,"ispublic":true,"latitude":-33.880525,"longitude":151.219237,"name":"Sacred Heart Health Service","peer":null,"phncode":101,"phnname":"Central and Eastern Sydney","state":"NSW"},{"code":"17","description":null,"id":17,"isclosed":false,"ispublic":true,"latitude":-33.879692,"longitude":151.221125,"name":"St Vincent's Hospital [Darlinghurst]","peer":null,"phncode":101,"phnname":"Central and Eastern Sydney","state":"NSW"},{"code":"18","description":null,"id":18,"isclosed":false,"ispublic":true,"latitude":-33.848659,"longitude":151.028339,"name":"St Joseph's Hospital","peer":null,"phncode":103,"phnname":"Western Sydney","state":"NSW"},{"code":"19","description":null,"id":19,"isclosed":false,"ispublic":true,"latitude":-33.859469,"longitude":151.181469,"name":"Balmain Hospital","peer":null,"phncode":101,"phnname":"Central and Eastern Sydney","state":"NSW"},{"code":"20","description":null,"id":20,"isclosed":false,"ispublic":true,"latitude":-33.919592,"longitude":151.098275,"name":"Canterbury Hospital","peer":null,"phncode":101,"phnname":"Central and Eastern Sydney","state":"NSW"},{"code":"21","description":null,"id":21,"isclosed":false,"ispublic":true,"latitude":-33.889251,"longitude":151.182926,"name":"Royal Prince Alfred Hospital","peer":null,"phncode":101,"phnname":"Central and Eastern Sydney","state":"NSW"},{"code":"22","description":null,"id":22,"isclosed":false,"ispublic":true,"latitude":-33.918732,"longitude":151.097526,"name":"Tresillian Care Centres","peer":null,"phncode":101,"phnname":"Central and Eastern Sydney","state":"NSW"},{"code":"23","description":null,"id":23,"isclosed":false,"ispublic":true,"latitude":-33.837288,"longitude":151.092664,"name":"Concord Repatriation Hospital","peer":null,"phncode":101,"phnname":"Central and Eastern Sydney","state":"NSW"},{"code":"24","description":null,"id":24,"isclosed":false,"ispublic":true,"latitude":-33.88828,"longitude":151.180707,"name":"Royal Prince Alfred Institute of Rheumatology & Orthopaedics","peer":null,"phncode":101,"phnname":"Central and Eastern Sydney","state":"NSW"},{"code":"25","description":null,"id":25,"isclosed":false,"ispublic":true,"latitude":-33.879777,"longitude":150.965763,"name":"Karitane","peer":null,"phncode":105,"phnname":"South Western Sydney","state":"NSW"},{"code":"26","description":null,"id":26,"isclosed":false,"ispublic":true,"latitude":-34.062702,"longitude":150.693297,"name":"Camden Hospital","peer":null,"phncode":105,"phnname":"South Western Sydney","state":"NSW"},{"code":"27","description":null,"id":27,"isclosed":false,"ispublic":true,"latitude":-33.860117,"longitude":150.904339,"name":"Fairfield Hospital","peer":null,"phncode":105,"phnname":"South Western Sydney","state":"NSW"},{"code":"28","description":null,"id":28,"isclosed":false,"ispublic":true,"latitude":-33.919966,"longitude":150.930776,"name":"Liverpool Hospital","peer":null,"phncode":105,"phnname":"South Western Sydney","state":"NSW"},{"code":"29","description":null,"id":29,"isclosed":false,"ispublic":true,"latitude":-34.077651,"longitude":150.806321,"name":"Campbelltown Hospital","peer":null,"phncode":105,"phnname":"South Western Sydney","state":"NSW"},{"code":"30","description":null,"id":30,"isclosed":false,"ispublic":true,"latitude":-33.933088,"longitude":151.020823,"name":"Bankstown Lidcombe Hospital","peer":null,"phncode":105,"phnname":"South Western Sydney","state":"NSW"},{"code":"31","description":null,"id":31,"isclosed":false,"ispublic":true,"latitude":-33.861917,"longitude":150.902192,"name":"Braeside Hospital","peer":null,"phncode":105,"phnname":"South Western Sydney","state":"NSW"},{"code":"32","description":null,"id":32,"isclosed":false,"ispublic":true,"latitude":-34.485043,"longitude":150.423796,"name":"Bowral Hospital","peer":null,"phncode":105,"phnname":"South Western Sydney","state":"NSW"},{"code":"33","description":null,"id":33,"isclosed":false,"ispublic":true,"latitude":-33.867929,"longitude":151.212575,"name":"Sydney Hospital / Sydney Eye Hospital","peer":null,"phncode":101,"phnname":"Central and Eastern Sydney","state":"NSW"},{"code":"34","description":null,"id":34,"isclosed":false,"ispublic":true,"latitude":-33.976132,"longitude":151.136206,"name":"Calvary Health Care - Sydney","peer":null,"phncode":101,"phnname":"Central and Eastern Sydney","state":"NSW"},{"code":"35","description":null,"id":35,"isclosed":false,"ispublic":true,"latitude":-31.535603,"longitude":159.071307,"name":"Gower Wilson Multi Purpose Service","peer":null,"phncode":101,"phnname":"Central and Eastern Sydney","state":"NSW"},{"code":"36","description":null,"id":36,"isclosed":false,"ispublic":true,"latitude":-33.897496,"longitude":151.253816,"name":"War Memorial Hospital","peer":null,"phncode":101,"phnname":"Central and Eastern Sydney","state":"NSW"},{"code":"37","description":null,"id":37,"isclosed":false,"ispublic":true,"latitude":-33.918492,"longitude":151.23938,"name":"Prince of Wales Hospital","peer":null,"phncode":101,"phnname":"Central and Eastern Sydney","state":"NSW"},{"code":"38","description":null,"id":38,"isclosed":false,"ispublic":true,"latitude":-33.966969,"longitude":151.133776,"name":"St George Hospital NSW","peer":null,"phncode":101,"phnname":"Central and Eastern Sydney","state":"NSW"},{"code":"39","description":null,"id":39,"isclosed":false,"ispublic":true,"latitude":-34.037288,"longitude":151.115151,"name":"Sutherland Hospital","peer":null,"phncode":101,"phnname":"Central and Eastern Sydney","state":"NSW"},{"code":"40","description":null,"id":40,"isclosed":false,"ispublic":true,"latitude":-33.919035,"longitude":151.237938,"name":"Royal Hospital for Women","peer":null,"phncode":101,"phnname":"Central and Eastern Sydney","state":"NSW"},{"code":"41","description":null,"id":41,"isclosed":false,"ispublic":true,"latitude":-34.336667,"longitude":150.907344,"name":"Bulli Hospital","peer":null,"phncode":106,"phnname":"South Eastern NSW","state":"NSW"},{"code":"42","description":null,"id":42,"isclosed":false,"ispublic":true,"latitude":-34.283797,"longitude":150.950796,"name":"Coledale Hospital","peer":null,"phncode":106,"phnname":"South Eastern NSW","state":"NSW"},{"code":"43","description":null,"id":43,"isclosed":false,"ispublic":true,"latitude":-34.682937,"longitude":150.850514,"name":"Kiama Hospital","peer":null,"phncode":106,"phnname":"South Eastern NSW","state":"NSW"},{"code":"44","description":null,"id":44,"isclosed":false,"ispublic":true,"latitude":-35.317313,"longitude":150.438918,"name":"Milton Ulladulla Hospital","peer":null,"phncode":106,"phnname":"South Eastern NSW","state":"NSW"},{"code":"45","description":null,"id":45,"isclosed":false,"ispublic":true,"latitude":-34.485923,"longitude":150.881778,"name":"Port Kembla Hospital","peer":null,"phncode":106,"phnname":"South Eastern NSW","state":"NSW"},{"code":"46","description":null,"id":46,"isclosed":false,"ispublic":true,"latitude":-34.868767,"longitude":150.595736,"name":"Shoalhaven Hospital","peer":null,"phncode":106,"phnname":"South Eastern NSW","state":"NSW"},{"code":"47","description":null,"id":47,"isclosed":false,"ispublic":true,"latitude":-34.424938,"longitude":150.883451,"name":"Wollongong Hospital","peer":null,"phncode":106,"phnname":"South Eastern NSW","state":"NSW"},{"code":"48","description":null,"id":48,"isclosed":false,"ispublic":true,"latitude":-34.558987,"longitude":150.840947,"name":"Shellharbour Hospital","peer":null,"phncode":106,"phnname":"South Eastern NSW","state":"NSW"},{"code":"49","description":null,"id":49,"isclosed":false,"ispublic":true,"latitude":-34.42623,"longitude":150.891252,"name":"Illawarra Mental Health Services","peer":null,"phncode":106,"phnname":"South Eastern NSW","state":"NSW"},{"code":"50","description":null,"id":50,"isclosed":false,"ispublic":true,"latitude":-34.775909,"longitude":150.712819,"name":"David Berry Hospital","peer":null,"phncode":106,"phnname":"South Eastern NSW","state":"NSW"},{"code":"51","description":null,"id":51,"isclosed":false,"ispublic":true,"latitude":-33.859867,"longitude":151.033204,"name":"Auburn Hospital","peer":null,"phncode":103,"phnname":"Western Sydney","state":"NSW"},{"code":"52","description":null,"id":52,"isclosed":false,"ispublic":true,"latitude":-33.775552,"longitude":150.917537,"name":"Blacktown Hospital","peer":null,"phncode":103,"phnname":"Western Sydney","state":"NSW"},{"code":"53","description":null,"id":53,"isclosed":false,"ispublic":true,"latitude":-33.765929,"longitude":150.829646,"name":"Mount Druitt Hospital","peer":null,"phncode":103,"phnname":"Western Sydney","state":"NSW"},{"code":"54","description":null,"id":54,"isclosed":false,"ispublic":true,"latitude":-33.804362,"longitude":150.987811,"name":"Westmead Hospital","peer":null,"phncode":103,"phnname":"Western Sydney","state":"NSW"},{"code":"55","description":null,"id":55,"isclosed":false,"ispublic":true,"latitude":-33.705329,"longitude":150.32111,"name":"Blue Mountains Hospital","peer":null,"phncode":104,"phnname":"Nepean Blue Mountains","state":"NSW"},{"code":"56","description":null,"id":56,"isclosed":false,"ispublic":true,"latitude":-33.759865,"longitude":150.712627,"name":"Nepean Hospital","peer":null,"phncode":104,"phnname":"Nepean Blue Mountains","state":"NSW"},{"code":"57","description":null,"id":57,"isclosed":false,"ispublic":true,"latitude":-33.690486,"longitude":150.571129,"name":"Springwood Hospital","peer":null,"phncode":104,"phnname":"Nepean Blue Mountains","state":"NSW"},{"code":"58","description":null,"id":58,"isclosed":false,"ispublic":true,"latitude":-33.610712,"longitude":150.820804,"name":"Hawkesbury Hospital","peer":null,"phncode":104,"phnname":"Nepean Blue Mountains","state":"NSW"},{"code":"59","description":null,"id":59,"isclosed":false,"ispublic":true,"latitude":-33.758161,"longitude":150.714392,"name":"Tresillian Family Care Centre, Kingswood","peer":null,"phncode":104,"phnname":"Nepean Blue Mountains","state":"NSW"},{"code":"60","description":null,"id":60,"isclosed":false,"ispublic":true,"latitude":-33.760249,"longitude":150.712613,"name":"Wentworth Psychiatric Services","peer":null,"phncode":104,"phnname":"Nepean Blue Mountains","state":"NSW"},{"code":"61","description":null,"id":61,"isclosed":false,"ispublic":true,"latitude":-33.498751,"longitude":150.127701,"name":"Lithgow Hospital","peer":null,"phncode":104,"phnname":"Nepean Blue Mountains","state":"NSW"},{"code":"62","description":null,"id":62,"isclosed":false,"ispublic":true,"latitude":-33.358415,"longitude":149.978565,"name":"Portland Tabulam Health Centre","peer":null,"phncode":104,"phnname":"Nepean Blue Mountains","state":"NSW"},{"code":"63","description":null,"id":63,"isclosed":false,"ispublic":true,"latitude":-33.827329,"longitude":151.183376,"name":"Greenwich Hospital","peer":null,"phncode":102,"phnname":"Northern Sydney","state":"NSW"},{"code":"64","description":null,"id":64,"isclosed":false,"ispublic":true,"latitude":-33.717856,"longitude":151.114556,"name":"Neringah Hospital","peer":null,"phncode":102,"phnname":"Northern Sydney","state":"NSW"},{"code":"65","description":null,"id":65,"isclosed":false,"ispublic":true,"latitude":-33.701448,"longitude":151.112941,"name":"Hornsby Ku-ring-gai Hospital","peer":null,"phncode":102,"phnname":"Northern Sydney","state":"NSW"},{"code":"66","description":null,"id":66,"isclosed":true,"ispublic":true,"latitude":null,"longitude":null,"name":"Manly Hospital","peer":null,"phncode":102,"phnname":"Northern Sydney","state":"NSW"},{"code":"67","description":null,"id":67,"isclosed":false,"ispublic":true,"latitude":-33.685353,"longitude":151.306618,"name":"Mona Vale Hospital","peer":null,"phncode":102,"phnname":"Northern Sydney","state":"NSW"},{"code":"68","description":null,"id":68,"isclosed":false,"ispublic":true,"latitude":-33.821312,"longitude":151.189735,"name":"Royal North Shore Hospital","peer":null,"phncode":102,"phnname":"Northern Sydney","state":"NSW"},{"code":"69","description":null,"id":69,"isclosed":false,"ispublic":true,"latitude":-33.821772,"longitude":151.107845,"name":"Royal Rehabilitation Hospital","peer":null,"phncode":102,"phnname":"Northern Sydney","state":"NSW"},{"code":"70","description":null,"id":70,"isclosed":false,"ispublic":true,"latitude":-33.795482,"longitude":151.089756,"name":"Ryde Hospital","peer":null,"phncode":102,"phnname":"Northern Sydney","state":"NSW"},{"code":"71","description":null,"id":71,"isclosed":false,"ispublic":true,"latitude":-33.419451,"longitude":151.340328,"name":"Gosford Hospital","peer":null,"phncode":108,"phnname":"Hunter New England and Central Coast","state":"NSW"},{"code":"72","description":null,"id":72,"isclosed":false,"ispublic":true,"latitude":-33.496716,"longitude":151.320952,"name":"Woy Woy Hospital","peer":null,"phncode":108,"phnname":"Hunter New England and Central Coast","state":"NSW"},{"code":"73","description":null,"id":73,"isclosed":false,"ispublic":true,"latitude":-33.369012,"longitude":151.468538,"name":"Long Jetty Health Care Centre","peer":null,"phncode":108,"phnname":"Hunter New England and Central Coast","state":"NSW"},{"code":"74","description":null,"id":74,"isclosed":false,"ispublic":true,"latitude":-33.261113,"longitude":151.480761,"name":"Wyong Hospital","peer":null,"phncode":108,"phnname":"Hunter New England and Central Coast","state":"NSW"},{"code":"75","description":null,"id":75,"isclosed":false,"ispublic":true,"latitude":-30.512726,"longitude":151.655629,"name":"Armidale Hospital","peer":null,"phncode":108,"phnname":"Hunter New England and Central Coast","state":"NSW"},{"code":"76","description":null,"id":76,"isclosed":false,"ispublic":true,"latitude":-30.382482,"longitude":150.605778,"name":"Barraba Multi Purpose Service","peer":null,"phncode":108,"phnname":"Hunter New England and Central Coast","state":"NSW"},{"code":"77","description":null,"id":77,"isclosed":false,"ispublic":true,"latitude":-29.864055,"longitude":150.579235,"name":"Bingara Multi Purpose Service","peer":null,"phncode":108,"phnname":"Hunter New England and Central Coast","state":"NSW"},{"code":"78","description":null,"id":78,"isclosed":false,"ispublic":true,"latitude":-30.711502,"longitude":150.040014,"name":"Boggabri Multi Purpose Service","peer":null,"phncode":108,"phnname":"Hunter New England and Central Coast","state":"NSW"},{"code":"79","description":null,"id":79,"isclosed":false,"ispublic":true,"latitude":-29.733293,"longitude":151.731673,"name":"Glen Innes Hospital","peer":null,"phncode":108,"phnname":"Hunter New England and Central Coast","state":"NSW"},{"code":"80","description":null,"id":80,"isclosed":false,"ispublic":true,"latitude":-30.983146,"longitude":150.251339,"name":"Gunnedah Hospital","peer":null,"phncode":108,"phnname":"Hunter New England and Central Coast","state":"NSW"},{"code":"81","description":null,"id":81,"isclosed":false,"ispublic":true,"latitude":-30.213889,"longitude":151.679112,"name":"Guyra Multi Purpose Service","peer":null,"phncode":108,"phnname":"Hunter New England and Central Coast","state":"NSW"},{"code":"82","description":null,"id":82,"isclosed":false,"ispublic":true,"latitude":-29.770728,"longitude":151.130139,"name":"Inverell Hospital","peer":null,"phncode":108,"phnname":"Hunter New England and Central Coast","state":"NSW"},{"code":"83","description":null,"id":83,"isclosed":false,"ispublic":true,"latitude":-30.745717,"longitude":150.732249,"name":"Manilla Hospital","peer":null,"phncode":108,"phnname":"Hunter New England and Central Coast","state":"NSW"},{"code":"84","description":null,"id":84,"isclosed":false,"ispublic":true,"latitude":-29.470678,"longitude":149.839648,"name":"Moree Hospital","peer":null,"phncode":108,"phnname":"Hunter New England and Central Coast","state":"NSW"},{"code":"85","description":null,"id":85,"isclosed":false,"ispublic":true,"latitude":-30.325869,"longitude":149.777108,"name":"Narrabri Hospital","peer":null,"phncode":108,"phnname":"Hunter New England and Central Coast","state":"NSW"},{"code":"86","description":null,"id":86,"isclosed":false,"ispublic":true,"latitude":-29.045083,"longitude":152.013552,"name":"Tenterfield Hospital","peer":null,"phncode":108,"phnname":"Hunter New England and Central Coast","state":"NSW"},{"code":"87","description":null,"id":87,"isclosed":false,"ispublic":true,"latitude":-31.500345,"longitude":150.676621,"name":"Quirindi Hospital","peer":null,"phncode":108,"phnname":"Hunter New England and Central Coast","state":"NSW"},{"code":"88","description":null,"id":88,"isclosed":false,"ispublic":true,"latitude":-31.074079,"longitude":150.924199,"name":"Tamworth Hospital","peer":null,"phncode":108,"phnname":"Hunter New England and Central Coast","state":"NSW"},{"code":"89","description":null,"id":89,"isclosed":false,"ispublic":true,"latitude":-29.950779,"longitude":151.206732,"name":"Tingha Multi Purpose Service","peer":null,"phncode":108,"phnname":"Hunter New England and Central Coast","state":"NSW"},{"code":"90","description":null,"id":90,"isclosed":false,"ispublic":true,"latitude":-29.450547,"longitude":151.599204,"name":"Vegetable Creek Multi Purpose Service Emmaville","peer":null,"phncode":108,"phnname":"Hunter New England and Central Coast","state":"NSW"},{"code":"91","description":null,"id":91,"isclosed":false,"ispublic":true,"latitude":-30.987818,"longitude":151.591415,"name":"Walcha Multi Purpose Service","peer":null,"phncode":108,"phnname":"Hunter New England and Central Coast","state":"NSW"},{"code":"92","description":null,"id":92,"isclosed":false,"ispublic":true,"latitude":-29.538835,"longitude":150.579567,"name":"Warialda Multi Purpose Service","peer":null,"phncode":108,"phnname":"Hunter New England and Central Coast","state":"NSW"},{"code":"93","description":null,"id":93,"isclosed":false,"ispublic":true,"latitude":-30.225439,"longitude":149.448287,"name":"Wee Waa Hospital","peer":null,"phncode":108,"phnname":"Hunter New England and Central Coast","state":"NSW"},{"code":"94","description":null,"id":94,"isclosed":false,"ispublic":true,"latitude":-31.346691,"longitude":150.652513,"name":"Werris Creek Hospital","peer":null,"phncode":108,"phnname":"Hunter New England and Central Coast","state":"NSW"},{"code":"95","description":null,"id":95,"isclosed":false,"ispublic":true,"latitude":-32.403949,"longitude":152.210029,"name":"Bulahdelah Hospital","peer":null,"phncode":108,"phnname":"Hunter New England and Central Coast","state":"NSW"},{"code":"96","description":null,"id":96,"isclosed":false,"ispublic":true,"latitude":-32.014787,"longitude":151.958556,"name":"Gloucester Soldiers' Memorial Hospital","peer":null,"phncode":108,"phnname":"Hunter New England and Central Coast","state":"NSW"},{"code":"97","description":null,"id":97,"isclosed":false,"ispublic":true,"latitude":-31.910418,"longitude":152.454485,"name":"Manning Hospital","peer":null,"phncode":108,"phnname":"Hunter New England and Central Coast","state":"NSW"},{"code":"98","description":null,"id":98,"isclosed":false,"ispublic":true,"latitude":-31.878104,"longitude":152.365179,"name":"Wingham Hospital","peer":null,"phncode":108,"phnname":"Hunter New England and Central Coast","state":"NSW"},{"code":"99","description":null,"id":99,"isclosed":false,"ispublic":true,"latitude":-32.827754,"longitude":151.348396,"name":"Cessnock Hospital","peer":null,"phncode":108,"phnname":"Hunter New England and Central Coast","state":"NSW"},{"code":"100","description":null,"id":100,"isclosed":false,"ispublic":true,"latitude":-32.401948,"longitude":151.746157,"name":"Dungog Hospital","peer":null,"phncode":108,"phnname":"Hunter New England and Central Coast","state":"NSW"},{"code":"101","description":null,"id":101,"isclosed":false,"ispublic":true,"latitude":-32.825017,"longitude":151.463018,"name":"Kurri Kurri Hospital","peer":null,"phncode":108,"phnname":"Hunter New England and Central Coast","state":"NSW"},{"code":"102","description":null,"id":102,"isclosed":false,"ispublic":true,"latitude":-32.726723,"longitude":151.545887,"name":"Maitland Hospital","peer":null,"phncode":108,"phnname":"Hunter New England and Central Coast","state":"NSW"},{"code":"103","description":null,"id":103,"isclosed":false,"ispublic":true,"latitude":-32.142714,"longitude":150.361316,"name":"Merriwa Multi Purpose Service","peer":null,"phncode":108,"phnname":"Hunter New England and Central Coast","state":"NSW"},{"code":"104","description":null,"id":104,"isclosed":false,"ispublic":true,"latitude":-32.264545,"longitude":150.900263,"name":"Muswellbrook Hospital","peer":null,"phncode":108,"phnname":"Hunter New England and Central Coast","state":"NSW"},{"code":"105","description":null,"id":105,"isclosed":false,"ispublic":true,"latitude":-32.389483,"longitude":150.684453,"name":"Denman Multi Purpose Service","peer":null,"phncode":108,"phnname":"Hunter New England and Central Coast","state":"NSW"},{"code":"106","description":null,"id":106,"isclosed":false,"ispublic":true,"latitude":-32.899371,"longitude":151.720858,"name":"Calvary Mater Newcastle","peer":null,"phncode":108,"phnname":"Hunter New England and Central Coast","state":"NSW"},{"code":"107","description":null,"id":107,"isclosed":false,"ispublic":true,"latitude":-33.024631,"longitude":151.648181,"name":"Belmont Hospital","peer":null,"phncode":108,"phnname":"Hunter New England and Central Coast","state":"NSW"},{"code":"108","description":null,"id":108,"isclosed":false,"ispublic":true,"latitude":-32.051525,"longitude":150.876864,"name":"Scott Memorial Hospital, Scone","peer":null,"phncode":108,"phnname":"Hunter New England and Central Coast","state":"NSW"},{"code":"109","description":null,"id":109,"isclosed":false,"ispublic":true,"latitude":-32.567087,"longitude":151.185736,"name":"Singleton Hospital","peer":null,"phncode":108,"phnname":"Hunter New England and Central Coast","state":"NSW"},{"code":"110","description":null,"id":110,"isclosed":false,"ispublic":true,"latitude":-31.770408,"longitude":150.834764,"name":"Wilson Memorial Community Hospital, Murrurundi","peer":null,"phncode":108,"phnname":"Hunter New England and Central Coast","state":"NSW"},{"code":"111","description":null,"id":111,"isclosed":false,"ispublic":true,"latitude":-32.720053,"longitude":152.158858,"name":"Tomaree Community Hospital","peer":null,"phncode":108,"phnname":"Hunter New England and Central Coast","state":"NSW"},{"code":"112","description":null,"id":112,"isclosed":false,"ispublic":true,"latitude":-32.922177,"longitude":151.692438,"name":"John Hunter Hospital","peer":null,"phncode":108,"phnname":"Hunter New England and Central Coast","state":"NSW"},{"code":"113","description":null,"id":113,"isclosed":false,"ispublic":true,"latitude":-28.863525,"longitude":153.564013,"name":"Ballina District Hospital","peer":null,"phncode":109,"phnname":"North Coast","state":"NSW"},{"code":"114","description":null,"id":114,"isclosed":true,"ispublic":true,"latitude":null,"longitude":null,"name":"Byron Bay Hospital","peer":null,"phncode":109,"phnname":"North Coast","state":"NSW"},{"code":"115","description":null,"id":115,"isclosed":true,"ispublic":true,"latitude":null,"longitude":null,"name":"Coraki Hospital","peer":null,"phncode":109,"phnname":"North Coast","state":"NSW"},{"code":"116","description":null,"id":116,"isclosed":false,"ispublic":true,"latitude":-28.859839,"longitude":153.035827,"name":"Casino and District Memorial Hospital","peer":null,"phncode":109,"phnname":"North Coast","state":"NSW"},{"code":"117","description":null,"id":117,"isclosed":false,"ispublic":true,"latitude":-28.733777,"longitude":152.622789,"name":"Bonalbo Hospital","peer":null,"phncode":109,"phnname":"North Coast","state":"NSW"},{"code":"118","description":null,"id":118,"isclosed":false,"ispublic":true,"latitude":-29.674807,"longitude":152.941274,"name":"Grafton Base Hospital","peer":null,"phncode":109,"phnname":"North Coast","state":"NSW"},{"code":"119","description":null,"id":119,"isclosed":false,"ispublic":true,"latitude":-28.627124,"longitude":153.001742,"name":"Kyogle Multi Purpose Service","peer":null,"phncode":109,"phnname":"North Coast","state":"NSW"},{"code":"120","description":null,"id":120,"isclosed":false,"ispublic":true,"latitude":-28.809191,"longitude":153.291045,"name":"Lismore Base Hospital","peer":null,"phncode":109,"phnname":"North Coast","state":"NSW"},{"code":"121","description":null,"id":121,"isclosed":false,"ispublic":true,"latitude":-28.597371,"longitude":153.223185,"name":"Nimbin Multi Purpose Service","peer":null,"phncode":109,"phnname":"North Coast","state":"NSW"},{"code":"122","description":null,"id":122,"isclosed":false,"ispublic":true,"latitude":-29.454219,"longitude":153.201094,"name":"Maclean District Hospital","peer":null,"phncode":109,"phnname":"North Coast","state":"NSW"},{"code":"123","description":null,"id":123,"isclosed":true,"ispublic":true,"latitude":null,"longitude":null,"name":"Mullumbimby Hospital","peer":null,"phncode":109,"phnname":"North Coast","state":"NSW"},{"code":"124","description":null,"id":124,"isclosed":false,"ispublic":true,"latitude":-28.323417,"longitude":153.400811,"name":"Murwillumbah District Hospital","peer":null,"phncode":109,"phnname":"North Coast","state":"NSW"},{"code":"125","description":null,"id":125,"isclosed":false,"ispublic":true,"latitude":-28.177216,"longitude":153.545458,"name":"The Tweed Hospital","peer":null,"phncode":109,"phnname":"North Coast","state":"NSW"},{"code":"126","description":null,"id":126,"isclosed":false,"ispublic":true,"latitude":-28.471511,"longitude":152.543029,"name":"Urbenville Multi Purpose Service","peer":null,"phncode":109,"phnname":"North Coast","state":"NSW"},{"code":"127","description":null,"id":127,"isclosed":false,"ispublic":true,"latitude":-28.80834,"longitude":153.29112,"name":"Riverlands Drug and Alcohol Centre","peer":null,"phncode":109,"phnname":"North Coast","state":"NSW"},{"code":"128","description":null,"id":128,"isclosed":false,"ispublic":true,"latitude":-30.457256,"longitude":152.893209,"name":"Bellinger River District Hospital","peer":null,"phncode":109,"phnname":"North Coast","state":"NSW"},{"code":"129","description":null,"id":129,"isclosed":false,"ispublic":true,"latitude":-30.317579,"longitude":153.093667,"name":"Coffs Harbour Hospital","peer":null,"phncode":109,"phnname":"North Coast","state":"NSW"},{"code":"130","description":null,"id":130,"isclosed":false,"ispublic":true,"latitude":-30.340625,"longitude":152.713882,"name":"Dorrigo Multi Purpose Service","peer":null,"phncode":109,"phnname":"North Coast","state":"NSW"},{"code":"131","description":null,"id":131,"isclosed":false,"ispublic":true,"latitude":-31.067841,"longitude":152.820038,"name":"Kempsey District Hospital","peer":null,"phncode":109,"phnname":"North Coast","state":"NSW"},{"code":"132","description":null,"id":132,"isclosed":false,"ispublic":true,"latitude":-30.713725,"longitude":152.919838,"name":"Macksville District Hospital","peer":null,"phncode":109,"phnname":"North Coast","state":"NSW"},{"code":"133","description":null,"id":133,"isclosed":false,"ispublic":true,"latitude":-31.457239,"longitude":152.728131,"name":"Wauchope District Memorial Hospital","peer":null,"phncode":109,"phnname":"North Coast","state":"NSW"},{"code":"134","description":null,"id":134,"isclosed":false,"ispublic":true,"latitude":-31.452336,"longitude":152.878304,"name":"Port Macquarie Base Hospital","peer":null,"phncode":109,"phnname":"North Coast","state":"NSW"},{"code":"135","description":null,"id":135,"isclosed":false,"ispublic":true,"latitude":-35.714055,"longitude":150.182375,"name":"Batemans Bay Hospital","peer":null,"phncode":106,"phnname":"South Eastern NSW","state":"NSW"},{"code":"136","description":null,"id":136,"isclosed":false,"ispublic":true,"latitude":-36.68905,"longitude":149.858549,"name":"South East Regional Hospital","peer":null,"phncode":106,"phnname":"South Eastern NSW","state":"NSW"},{"code":"137","description":null,"id":137,"isclosed":false,"ispublic":true,"latitude":-36.917513,"longitude":149.235372,"name":"Bombala Multi Purpose Service","peer":null,"phncode":106,"phnname":"South Eastern NSW","state":"NSW"},{"code":"138","description":null,"id":138,"isclosed":false,"ispublic":true,"latitude":-35.443216,"longitude":149.805302,"name":"Braidwood Multi Purpose Service","peer":null,"phncode":106,"phnname":"South Eastern NSW","state":"NSW"},{"code":"139","description":null,"id":139,"isclosed":false,"ispublic":true,"latitude":-36.241389,"longitude":149.130499,"name":"Cooma Hospital and Health Service","peer":null,"phncode":106,"phnname":"South Eastern NSW","state":"NSW"},{"code":"140","description":null,"id":140,"isclosed":false,"ispublic":true,"latitude":-34.464222,"longitude":149.467427,"name":"Crookwell District Hospital","peer":null,"phncode":106,"phnname":"South Eastern NSW","state":"NSW"},{"code":"141","description":null,"id":141,"isclosed":false,"ispublic":true,"latitude":-37.04496,"longitude":148.945958,"name":"Delegate Multi Purpose Service","peer":null,"phncode":106,"phnname":"South Eastern NSW","state":"NSW"},{"code":"142","description":null,"id":142,"isclosed":false,"ispublic":true,"latitude":-34.747527,"longitude":149.712806,"name":"Goulburn Base Hospital","peer":null,"phncode":106,"phnname":"South Eastern NSW","state":"NSW"},{"code":"143","description":null,"id":143,"isclosed":false,"ispublic":true,"latitude":-35.904137,"longitude":150.070774,"name":"Moruya Hospital","peer":null,"phncode":106,"phnname":"South Eastern NSW","state":"NSW"},{"code":"144","description":null,"id":144,"isclosed":false,"ispublic":true,"latitude":-36.926316,"longitude":149.879232,"name":"Pambula Hospital","peer":null,"phncode":106,"phnname":"South Eastern NSW","state":"NSW"},{"code":"145","description":null,"id":145,"isclosed":false,"ispublic":true,"latitude":-35.347685,"longitude":149.232294,"name":"Queanbeyan Hospital","peer":null,"phncode":106,"phnname":"South Eastern NSW","state":"NSW"},{"code":"146","description":null,"id":146,"isclosed":false,"ispublic":true,"latitude":-34.748721,"longitude":149.719321,"name":"Bourke Street Health Service","peer":null,"phncode":106,"phnname":"South Eastern NSW","state":"NSW"},{"code":"147","description":null,"id":147,"isclosed":false,"ispublic":true,"latitude":-34.844072,"longitude":148.906427,"name":"Yass District Hospital","peer":null,"phncode":106,"phnname":"South Eastern NSW","state":"NSW"},{"code":"149","description":null,"id":149,"isclosed":false,"ispublic":true,"latitude":-33.292027,"longitude":146.374304,"name":"Lake Cargelligo Multi Purpose Service","peer":null,"phncode":110,"phnname":"Murrumbidgee","state":"NSW"},{"code":"150","description":null,"id":150,"isclosed":false,"ispublic":true,"latitude":-33.916373,"longitude":147.196483,"name":"Wyalong Hospital","peer":null,"phncode":110,"phnname":"Murrumbidgee","state":"NSW"},{"code":"151","description":null,"id":151,"isclosed":false,"ispublic":true,"latitude":-35.623823,"longitude":144.133479,"name":"Barham Hospital","peer":null,"phncode":110,"phnname":"Murrumbidgee","state":"NSW"},{"code":"152","description":null,"id":152,"isclosed":false,"ispublic":true,"latitude":-35.662312,"longitude":145.813035,"name":"Berrigan Multi Purpose Service","peer":null,"phncode":110,"phnname":"Murrumbidgee","state":"NSW"},{"code":"153","description":null,"id":153,"isclosed":false,"ispublic":true,"latitude":-35.667399,"longitude":147.042104,"name":"Culcairn Multi Purpose Service","peer":null,"phncode":110,"phnname":"Murrumbidgee","state":"NSW"},{"code":"154","description":null,"id":154,"isclosed":false,"ispublic":true,"latitude":-35.993528,"longitude":146.383541,"name":"Corowa Health Service","peer":null,"phncode":110,"phnname":"Murrumbidgee","state":"NSW"},{"code":"155","description":null,"id":155,"isclosed":false,"ispublic":true,"latitude":-35.524044,"longitude":144.963301,"name":"Deniliquin Hospital","peer":null,"phncode":110,"phnname":"Murrumbidgee","state":"NSW"},{"code":"156","description":null,"id":156,"isclosed":false,"ispublic":true,"latitude":-35.641725,"longitude":145.568139,"name":"Finley Hospital","peer":null,"phncode":110,"phnname":"Murrumbidgee","state":"NSW"},{"code":"157","description":null,"id":157,"isclosed":false,"ispublic":true,"latitude":-35.515801,"longitude":147.031847,"name":"Henty Multi Purpose Service","peer":null,"phncode":110,"phnname":"Murrumbidgee","state":"NSW"},{"code":"158","description":null,"id":158,"isclosed":false,"ispublic":true,"latitude":-35.723991,"longitude":147.320276,"name":"Holbrook Hospital","peer":null,"phncode":110,"phnname":"Murrumbidgee","state":"NSW"},{"code":"159","description":null,"id":159,"isclosed":false,"ispublic":true,"latitude":-35.356628,"longitude":145.720596,"name":"Jerilderie Multi Purpose Service","peer":null,"phncode":110,"phnname":"Murrumbidgee","state":"NSW"},{"code":"160","description":null,"id":160,"isclosed":false,"ispublic":true,"latitude":-36.069221,"longitude":146.916764,"name":"Mercy Care Hospital - Albury","peer":null,"phncode":205,"phnname":"Murray","state":"NSW"},{"code":"161","description":null,"id":161,"isclosed":false,"ispublic":true,"latitude":-35.325419,"longitude":146.267316,"name":"Urana Multi Purpose Service","peer":null,"phncode":110,"phnname":"Murrumbidgee","state":"NSW"},{"code":"162","description":null,"id":162,"isclosed":false,"ispublic":true,"latitude":-35.815407,"longitude":145.568996,"name":"Tocumwal Hospital","peer":null,"phncode":110,"phnname":"Murrumbidgee","state":"NSW"},{"code":"163","description":null,"id":163,"isclosed":false,"ispublic":true,"latitude":-35.778706,"longitude":148.006203,"name":"Tumbarumba Multi Purpose Service","peer":null,"phncode":110,"phnname":"Murrumbidgee","state":"NSW"},{"code":"164","description":null,"id":164,"isclosed":false,"ispublic":true,"latitude":-34.442822,"longitude":148.727073,"name":"Boorowa Multi Purpose Service","peer":null,"phncode":110,"phnname":"Murrumbidgee","state":"NSW"},{"code":"165","description":null,"id":165,"isclosed":false,"ispublic":true,"latitude":-34.321003,"longitude":148.288693,"name":"Mercy Care Hospital - Young","peer":null,"phncode":110,"phnname":"Murrumbidgee","state":"NSW"},{"code":"166","description":null,"id":166,"isclosed":false,"ispublic":true,"latitude":-34.555254,"longitude":148.360186,"name":"Murrumburrah-Harden Hospital","peer":null,"phncode":110,"phnname":"Murrumbidgee","state":"NSW"},{"code":"167","description":null,"id":167,"isclosed":false,"ispublic":true,"latitude":-34.320383,"longitude":148.288457,"name":"Young Hospital","peer":null,"phncode":110,"phnname":"Murrumbidgee","state":"NSW"},{"code":"168","description":null,"id":168,"isclosed":false,"ispublic":true,"latitude":-35.521951,"longitude":148.147891,"name":"Batlow/Adelong Multi Purpose Service","peer":null,"phncode":110,"phnname":"Murrumbidgee","state":"NSW"},{"code":"169","description":null,"id":169,"isclosed":false,"ispublic":true,"latitude":-34.282121,"longitude":146.043774,"name":"Griffith Base Hospital","peer":null,"phncode":110,"phnname":"Murrumbidgee","state":"NSW"},{"code":"170","description":null,"id":170,"isclosed":false,"ispublic":true,"latitude":-35.051394,"longitude":148.101764,"name":"Gundagai Hospital","peer":null,"phncode":110,"phnname":"Murrumbidgee","state":"NSW"},{"code":"171","description":null,"id":171,"isclosed":false,"ispublic":true,"latitude":-34.500349,"longitude":144.851433,"name":"Hay Hospital","peer":null,"phncode":110,"phnname":"Murrumbidgee","state":"NSW"},{"code":"172","description":null,"id":172,"isclosed":false,"ispublic":true,"latitude":-33.478793,"longitude":145.539032,"name":"Hillston Hospital","peer":null,"phncode":110,"phnname":"Murrumbidgee","state":"NSW"},{"code":"173","description":null,"id":173,"isclosed":false,"ispublic":true,"latitude":-34.866914,"longitude":147.581314,"name":"Junee Multi Purpose Service","peer":null,"phncode":110,"phnname":"Murrumbidgee","state":"NSW"},{"code":"174","description":null,"id":174,"isclosed":false,"ispublic":true,"latitude":-34.819885,"longitude":147.199329,"name":"Coolamon-Ganmain Multi Purpose Service","peer":null,"phncode":110,"phnname":"Murrumbidgee","state":"NSW"},{"code":"175","description":null,"id":175,"isclosed":false,"ispublic":true,"latitude":-34.545222,"longitude":146.408831,"name":"Leeton Hospital","peer":null,"phncode":110,"phnname":"Murrumbidgee","state":"NSW"},{"code":"176","description":null,"id":176,"isclosed":false,"ispublic":true,"latitude":-35.222378,"longitude":146.719064,"name":"Lockhart Hospital","peer":null,"phncode":110,"phnname":"Murrumbidgee","state":"NSW"},{"code":"177","description":null,"id":177,"isclosed":false,"ispublic":true,"latitude":-34.743181,"longitude":146.547661,"name":"Narrandera Hospital","peer":null,"phncode":110,"phnname":"Murrumbidgee","state":"NSW"},{"code":"178","description":null,"id":178,"isclosed":false,"ispublic":true,"latitude":-34.4439423,"longitude":147.5426162,"name":"Temora Hospital","peer":null,"phncode":110,"phnname":"Murrumbidgee","state":"NSW"},{"code":"179","description":null,"id":179,"isclosed":false,"ispublic":true,"latitude":-35.307265,"longitude":148.219552,"name":"Tumut Hospital","peer":null,"phncode":110,"phnname":"Murrumbidgee","state":"NSW"},{"code":"180","description":null,"id":180,"isclosed":false,"ispublic":true,"latitude":-35.118083,"longitude":147.356915,"name":"Wagga Wagga Hospital","peer":null,"phncode":110,"phnname":"Murrumbidgee","state":"NSW"},{"code":"181","description":null,"id":181,"isclosed":false,"ispublic":true,"latitude":-34.634386,"longitude":148.012796,"name":"Cootamundra Hospital","peer":null,"phncode":110,"phnname":"Murrumbidgee","state":"NSW"},{"code":"182","description":null,"id":182,"isclosed":false,"ispublic":true,"latitude":-30.092823,"longitude":145.947983,"name":"Bourke Multi Purpose Service","peer":null,"phncode":107,"phnname":"Western NSW","state":"NSW"},{"code":"183","description":null,"id":183,"isclosed":false,"ispublic":true,"latitude":-29.961627,"longitude":146.863796,"name":"Brewarrina Multi Purpose Service","peer":null,"phncode":107,"phnname":"Western NSW","state":"NSW"},{"code":"184","description":null,"id":184,"isclosed":false,"ispublic":true,"latitude":-31.509026,"longitude":145.825266,"name":"Cobar Health Service","peer":null,"phncode":107,"phnname":"Western NSW","state":"NSW"},{"code":"185","description":null,"id":185,"isclosed":false,"ispublic":true,"latitude":-29.544889,"longitude":148.581901,"name":"Collarenebri Multi Purpose Service","peer":null,"phncode":107,"phnname":"Western NSW","state":"NSW"},{"code":"186","description":null,"id":186,"isclosed":false,"ispublic":true,"latitude":-31.821473,"longitude":149.710049,"name":"Coolah Multi Purpose Service","peer":null,"phncode":107,"phnname":"Western NSW","state":"NSW"},{"code":"187","description":null,"id":187,"isclosed":false,"ispublic":true,"latitude":-31.274791,"longitude":149.284779,"name":"Coonabarabran Health Service","peer":null,"phncode":107,"phnname":"Western NSW","state":"NSW"},{"code":"188","description":null,"id":188,"isclosed":false,"ispublic":true,"latitude":-30.945316,"longitude":149.066189,"name":"Baradine Multi Purpose Service","peer":null,"phncode":107,"phnname":"Western NSW","state":"NSW"},{"code":"189","description":null,"id":189,"isclosed":false,"ispublic":true,"latitude":-30.964803,"longitude":148.387527,"name":"Coonamble Multi Purpose Service","peer":null,"phncode":107,"phnname":"Western NSW","state":"NSW"},{"code":"190","description":null,"id":190,"isclosed":false,"ispublic":true,"latitude":-31.329812,"longitude":148.469216,"name":"Gulargambone Multi Purpose Service","peer":null,"phncode":107,"phnname":"Western NSW","state":"NSW"},{"code":"191","description":null,"id":191,"isclosed":false,"ispublic":true,"latitude":-32.239339,"longitude":148.620772,"name":"Dubbo Hospital","peer":null,"phncode":107,"phnname":"Western NSW","state":"NSW"},{"code":"192","description":null,"id":192,"isclosed":false,"ispublic":true,"latitude":-32.017204,"longitude":149.397366,"name":"Dunedoo Multi Purpose Service","peer":null,"phncode":107,"phnname":"Western NSW","state":"NSW"},{"code":"193","description":null,"id":193,"isclosed":false,"ispublic":true,"latitude":-31.704565,"longitude":148.664889,"name":"Gilgandra Multi Purpose Service","peer":null,"phncode":107,"phnname":"Western NSW","state":"NSW"},{"code":"194","description":null,"id":194,"isclosed":false,"ispublic":true,"latitude":-32.3668707,"longitude":149.5218927,"name":"Gulgong Multi Purpose Service","peer":null,"phncode":107,"phnname":"Western NSW","state":"NSW"},{"code":"195","description":null,"id":195,"isclosed":false,"ispublic":true,"latitude":-32.603229,"longitude":149.588179,"name":"Mudgee Health Service","peer":null,"phncode":107,"phnname":"Western NSW","state":"NSW"},{"code":"196","description":null,"id":196,"isclosed":false,"ispublic":true,"latitude":-32.24261,"longitude":148.239201,"name":"Narromine Health Service","peer":null,"phncode":107,"phnname":"Western NSW","state":"NSW"},{"code":"197","description":null,"id":197,"isclosed":false,"ispublic":true,"latitude":-31.560024,"longitude":147.208772,"name":"Nyngan Multi Purpose Service","peer":null,"phncode":107,"phnname":"Western NSW","state":"NSW"},{"code":"198","description":null,"id":198,"isclosed":false,"ispublic":true,"latitude":-32.030813,"longitude":147.976355,"name":"Trangie Multi Purpose Service","peer":null,"phncode":107,"phnname":"Western NSW","state":"NSW"},{"code":"199","description":null,"id":199,"isclosed":false,"ispublic":true,"latitude":-30.030646,"longitude":148.115959,"name":"Walgett Multipurpose Service","peer":null,"phncode":107,"phnname":"Western NSW","state":"NSW"},{"code":"200","description":null,"id":200,"isclosed":false,"ispublic":true,"latitude":-31.693958,"longitude":147.835679,"name":"Warren Multi Purpose Service","peer":null,"phncode":107,"phnname":"Western NSW","state":"NSW"},{"code":"201","description":null,"id":201,"isclosed":false,"ispublic":true,"latitude":-32.549741,"longitude":148.951977,"name":"Wellington Health Service","peer":null,"phncode":107,"phnname":"Western NSW","state":"NSW"},{"code":"202","description":null,"id":202,"isclosed":false,"ispublic":true,"latitude":-29.429973,"longitude":147.981869,"name":"Lightning Ridge Multi Purpose Service","peer":null,"phncode":107,"phnname":"Western NSW","state":"NSW"},{"code":"203","description":null,"id":203,"isclosed":false,"ispublic":true,"latitude":-32.238511,"longitude":148.627361,"name":"Lourdes Hospital Dubbo","peer":null,"phncode":107,"phnname":"Western NSW","state":"NSW"},{"code":"204","description":null,"id":204,"isclosed":false,"ispublic":true,"latitude":-33.406512,"longitude":149.572699,"name":"Bathurst Base Hospital","peer":null,"phncode":107,"phnname":"Western NSW","state":"NSW"},{"code":"205","description":null,"id":205,"isclosed":false,"ispublic":true,"latitude":-33.537728,"longitude":149.248988,"name":"Blayney Multi Purpose Service","peer":null,"phncode":107,"phnname":"Western NSW","state":"NSW"},{"code":"206","description":null,"id":206,"isclosed":false,"ispublic":true,"latitude":-33.557204,"longitude":148.676576,"name":"Canowindra Soldiers Memorial Hospital","peer":null,"phncode":107,"phnname":"Western NSW","state":"NSW"},{"code":"207","description":null,"id":207,"isclosed":false,"ispublic":true,"latitude":-33.082332,"longitude":147.154161,"name":"Condobolin Health Service","peer":null,"phncode":107,"phnname":"Western NSW","state":"NSW"},{"code":"208","description":null,"id":208,"isclosed":false,"ispublic":true,"latitude":-33.832137,"longitude":148.692376,"name":"Cowra Health Service","peer":null,"phncode":107,"phnname":"Western NSW","state":"NSW"},{"code":"209","description":null,"id":209,"isclosed":false,"ispublic":true,"latitude":-33.424421,"longitude":148.366799,"name":"Eugowra Memorial Multipurpose Service","peer":null,"phncode":107,"phnname":"Western NSW","state":"NSW"},{"code":"210","description":null,"id":210,"isclosed":false,"ispublic":true,"latitude":-33.396281,"longitude":148.013831,"name":"Lachlan Health Service - Forbes","peer":null,"phncode":107,"phnname":"Western NSW","state":"NSW"},{"code":"211","description":null,"id":211,"isclosed":false,"ispublic":true,"latitude":-33.894286,"longitude":148.167843,"name":"Grenfell Multi Purpose Service","peer":null,"phncode":107,"phnname":"Western NSW","state":"NSW"},{"code":"212","description":null,"id":212,"isclosed":false,"ispublic":true,"latitude":-33.087622,"longitude":148.859724,"name":"Molong Health Service","peer":null,"phncode":107,"phnname":"Western NSW","state":"NSW"},{"code":"213","description":null,"id":213,"isclosed":false,"ispublic":true,"latitude":-33.705249,"longitude":149.853596,"name":"Oberon Multi Purpose Service","peer":null,"phncode":107,"phnname":"Western NSW","state":"NSW"},{"code":"214","description":null,"id":214,"isclosed":false,"ispublic":true,"latitude":-33.317316,"longitude":149.093953,"name":"Orange Health Service","peer":null,"phncode":107,"phnname":"Western NSW","state":"NSW"},{"code":"215","description":null,"id":215,"isclosed":false,"ispublic":true,"latitude":-33.151507,"longitude":148.169757,"name":"Lachlan Health Service - Parkes","peer":null,"phncode":107,"phnname":"Western NSW","state":"NSW"},{"code":"216","description":null,"id":216,"isclosed":false,"ispublic":true,"latitude":-32.735907,"longitude":148.199615,"name":"Peak Hill Multipurpose Service","peer":null,"phncode":107,"phnname":"Western NSW","state":"NSW"},{"code":"217","description":null,"id":217,"isclosed":false,"ispublic":true,"latitude":-32.921078,"longitude":147.704315,"name":"Trundle Multi Purpose Health Service","peer":null,"phncode":107,"phnname":"Western NSW","state":"NSW"},{"code":"218","description":null,"id":218,"isclosed":false,"ispublic":true,"latitude":-32.804085,"longitude":149.975652,"name":"Rylstone Multi Purpose Service","peer":null,"phncode":107,"phnname":"Western NSW","state":"NSW"},{"code":"219","description":null,"id":219,"isclosed":false,"ispublic":true,"latitude":-32.242711,"longitude":147.358031,"name":"Tottenham Multipurpose Service","peer":null,"phncode":107,"phnname":"Western NSW","state":"NSW"},{"code":"220","description":null,"id":220,"isclosed":false,"ispublic":true,"latitude":-32.635114,"longitude":147.568997,"name":"Tullamore Multi Purpose Health Service","peer":null,"phncode":107,"phnname":"Western NSW","state":"NSW"},{"code":"221","description":null,"id":221,"isclosed":false,"ispublic":true,"latitude":-34.644549,"longitude":143.568413,"name":"Balranald Multi Purpose Service","peer":null,"phncode":107,"phnname":"Western NSW","state":"NSW"},{"code":"222","description":null,"id":222,"isclosed":false,"ispublic":true,"latitude":-34.109983,"longitude":141.922481,"name":"Wentworth Hospital","peer":null,"phncode":107,"phnname":"Western NSW","state":"NSW"},{"code":"223","description":null,"id":223,"isclosed":false,"ispublic":true,"latitude":-31.947609,"longitude":141.454703,"name":"Broken Hill Hospital","peer":null,"phncode":107,"phnname":"Western NSW","state":"NSW"},{"code":"224","description":null,"id":224,"isclosed":false,"ispublic":true,"latitude":-31.557638,"longitude":143.385336,"name":"Wilcannia Multi Purpose Service","peer":null,"phncode":107,"phnname":"Western NSW","state":"NSW"},{"code":"225","description":null,"id":225,"isclosed":false,"ispublic":true,"latitude":-33.832336,"longitude":151.097897,"name":"Thomas Walker Hospital","peer":null,"phncode":101,"phnname":"Central and Eastern Sydney","state":"NSW"},{"code":"226","description":null,"id":226,"isclosed":false,"ispublic":true,"latitude":-33.80159,"longitude":150.995246,"name":"Cumberland Hospital","peer":null,"phncode":103,"phnname":"Western Sydney","state":"NSW"},{"code":"227","description":null,"id":227,"isclosed":false,"ispublic":true,"latitude":-33.802312,"longitude":151.124818,"name":"Macquarie Hospital","peer":null,"phncode":102,"phnname":"Northern Sydney","state":"NSW"},{"code":"228","description":null,"id":228,"isclosed":false,"ispublic":true,"latitude":-33.804256,"longitude":151.126212,"name":"Coral Tree Family Centre","peer":null,"phncode":102,"phnname":"Northern Sydney","state":"NSW"},{"code":"229","description":null,"id":229,"isclosed":false,"ispublic":true,"latitude":-33.128549,"longitude":151.512816,"name":"Morisset Hospital","peer":null,"phncode":108,"phnname":"Hunter New England and Central Coast","state":"NSW"},{"code":"230","description":null,"id":230,"isclosed":false,"ispublic":true,"latitude":-32.8978727,"longitude":151.720669,"name":"Hunter New England Mental Health Service","peer":null,"phncode":108,"phnname":"Hunter New England and Central Coast","state":"NSW"},{"code":"231","description":null,"id":231,"isclosed":false,"ispublic":true,"latitude":-34.721253,"longitude":149.751344,"name":"Kenmore Hospital","peer":null,"phncode":106,"phnname":"South Eastern NSW","state":"NSW"},{"code":"233","description":null,"id":233,"isclosed":false,"ispublic":true,"latitude":-37.736495,"longitude":142.030606,"name":"Western District Health Service [Hamilton]","peer":null,"phncode":206,"phnname":"Western Victoria","state":"Vic"},{"code":"234","description":null,"id":234,"isclosed":false,"ispublic":true,"latitude":-37.877275,"longitude":142.282487,"name":"Western District Health Service [Penshurst]","peer":null,"phncode":206,"phnname":"Western Victoria","state":"Vic"},{"code":"235","description":null,"id":235,"isclosed":false,"ispublic":true,"latitude":-38.341201,"longitude":143.582854,"name":"Colac Area Health","peer":null,"phncode":206,"phnname":"Western Victoria","state":"Vic"},{"code":"236","description":null,"id":236,"isclosed":false,"ispublic":true,"latitude":-38.243369,"longitude":143.985357,"name":"Hesse Rural Health Service [Winchelsea]","peer":null,"phncode":206,"phnname":"Western Victoria","state":"Vic"},{"code":"237","description":null,"id":237,"isclosed":false,"ispublic":true,"latitude":-38.753853,"longitude":143.664264,"name":"Otway Health & Community Services [Apollo Bay]","peer":null,"phncode":206,"phnname":"Western Victoria","state":"Vic"},{"code":"238","description":null,"id":238,"isclosed":false,"ispublic":true,"latitude":-38.151533,"longitude":144.364964,"name":"University Hospital Geelong","peer":null,"phncode":206,"phnname":"Western Victoria","state":"Vic"},{"code":"239","description":null,"id":239,"isclosed":false,"ispublic":true,"latitude":-37.589989,"longitude":141.392283,"name":"Casterton Memorial Hospital","peer":null,"phncode":206,"phnname":"Western Victoria","state":"Vic"},{"code":"240","description":null,"id":240,"isclosed":false,"ispublic":true,"latitude":-37.599913,"longitude":141.692018,"name":"Western District Health Service [Coleraine]","peer":null,"phncode":206,"phnname":"Western Victoria","state":"Vic"},{"code":"241","description":null,"id":241,"isclosed":false,"ispublic":true,"latitude":-38.380085,"longitude":142.472977,"name":"South West Healthcare [Warrnambool]","peer":null,"phncode":206,"phnname":"Western Victoria","state":"Vic"},{"code":"242","description":null,"id":242,"isclosed":false,"ispublic":true,"latitude":-37.683998,"longitude":143.367547,"name":"Beaufort & Skipton Health Service [Skipton]","peer":null,"phncode":206,"phnname":"Western Victoria","state":"Vic"},{"code":"243","description":null,"id":243,"isclosed":false,"ispublic":true,"latitude":-38.137788,"longitude":141.624256,"name":"Heywood Rural Health","peer":null,"phncode":206,"phnname":"Western Victoria","state":"Vic"},{"code":"244","description":null,"id":244,"isclosed":false,"ispublic":true,"latitude":-38.486231,"longitude":142.976717,"name":"Timboon & District Healthcare Service","peer":null,"phncode":206,"phnname":"Western Victoria","state":"Vic"},{"code":"245","description":null,"id":245,"isclosed":false,"ispublic":true,"latitude":-38.381599,"longitude":142.227523,"name":"Moyne Health Services [Port Fairy]","peer":null,"phncode":206,"phnname":"Western Victoria","state":"Vic"},{"code":"246","description":null,"id":246,"isclosed":false,"ispublic":true,"latitude":-38.340713,"longitude":141.606087,"name":"Portland District Health","peer":null,"phncode":206,"phnname":"Western Victoria","state":"Vic"},{"code":"247","description":null,"id":247,"isclosed":false,"ispublic":true,"latitude":-38.545513,"longitude":143.980743,"name":"Lorne Community Hospital","peer":null,"phncode":206,"phnname":"Western Victoria","state":"Vic"},{"code":"248","description":null,"id":248,"isclosed":false,"ispublic":true,"latitude":-38.118795,"longitude":144.335728,"name":"The McKellar Centre","peer":null,"phncode":206,"phnname":"Western Victoria","state":"Vic"},{"code":"249","description":null,"id":249,"isclosed":false,"ispublic":true,"latitude":-38.237101,"longitude":143.137714,"name":"South West Healthcare [Camperdown]","peer":null,"phncode":206,"phnname":"Western Victoria","state":"Vic"},{"code":"250","description":null,"id":250,"isclosed":false,"ispublic":true,"latitude":-38.239388,"longitude":142.902119,"name":"Terang & Mortlake Health Service [Terang]","peer":null,"phncode":206,"phnname":"Western Victoria","state":"Vic"},{"code":"251","description":null,"id":251,"isclosed":false,"ispublic":true,"latitude":-37.278816,"longitude":142.932858,"name":"East Grampians Health Service [Ararat]","peer":null,"phncode":206,"phnname":"Western Victoria","state":"Vic"},{"code":"252","description":null,"id":252,"isclosed":false,"ispublic":true,"latitude":-37.544798,"longitude":142.74587,"name":"East Grampians Health Service [Willaura]","peer":null,"phncode":206,"phnname":"Western Victoria","state":"Vic"},{"code":"253","description":null,"id":253,"isclosed":false,"ispublic":true,"latitude":-36.252614,"longitude":142.381609,"name":"Rural Northwest Health [Warracknabeal]","peer":null,"phncode":206,"phnname":"Western Victoria","state":"Vic"},{"code":"254","description":null,"id":254,"isclosed":false,"ispublic":true,"latitude":-35.732201,"longitude":142.366411,"name":"Rural Northwest Health [Hopetoun]","peer":null,"phncode":206,"phnname":"Western Victoria","state":"Vic"},{"code":"255","description":null,"id":255,"isclosed":false,"ispublic":true,"latitude":-37.559658,"longitude":143.847041,"name":"Ballarat Health Services [Base Hospital]","peer":null,"phncode":206,"phnname":"Western Victoria","state":"Vic"},{"code":"256","description":null,"id":256,"isclosed":false,"ispublic":true,"latitude":-37.564276,"longitude":143.843264,"name":"Ballarat Health Services [Queen Elizabeth Campus]","peer":null,"phncode":206,"phnname":"Western Victoria","state":"Vic"},{"code":"257","description":null,"id":257,"isclosed":false,"ispublic":true,"latitude":-36.712441,"longitude":142.208522,"name":"Wimmera Base Hospital [Horsham]","peer":null,"phncode":206,"phnname":"Western Victoria","state":"Vic"},{"code":"258","description":null,"id":258,"isclosed":false,"ispublic":true,"latitude":-36.636571,"longitude":142.631849,"name":"West Wimmera Health Service [Rupanyup]","peer":null,"phncode":206,"phnname":"Western Victoria","state":"Vic"},{"code":"259","description":null,"id":259,"isclosed":false,"ispublic":true,"latitude":-37.059577,"longitude":142.781603,"name":"Stawell Regional Health","peer":null,"phncode":206,"phnname":"Western Victoria","state":"Vic"},{"code":"260","description":null,"id":260,"isclosed":false,"ispublic":true,"latitude":-36.334003,"longitude":141.655579,"name":"West Wimmera Health Service [Nhill]","peer":null,"phncode":206,"phnname":"Western Victoria","state":"Vic"},{"code":"261","description":null,"id":261,"isclosed":false,"ispublic":true,"latitude":-36.381386,"longitude":141.246006,"name":"West Wimmera Health Service [Kaniva]","peer":null,"phncode":206,"phnname":"Western Victoria","state":"Vic"},{"code":"262","description":null,"id":262,"isclosed":false,"ispublic":true,"latitude":-36.141132,"longitude":141.984686,"name":"West Wimmera Health Service [Jeparit]","peer":null,"phncode":206,"phnname":"Western Victoria","state":"Vic"},{"code":"263","description":null,"id":263,"isclosed":false,"ispublic":true,"latitude":-35.903874,"longitude":141.995112,"name":"West Wimmera Health Service [Rainbow]","peer":null,"phncode":206,"phnname":"Western Victoria","state":"Vic"},{"code":"264","description":null,"id":264,"isclosed":false,"ispublic":true,"latitude":-36.609275,"longitude":143.246676,"name":"East Wimmera Health Service [St Arnaud]","peer":null,"phncode":206,"phnname":"Western Victoria","state":"Vic"},{"code":"265","description":null,"id":265,"isclosed":false,"ispublic":true,"latitude":-37.678267,"longitude":144.433264,"name":"Djerriwarrh Health Service [Bacchus Marsh]","peer":null,"phncode":201,"phnname":"North Western Melbourne","state":"Vic"},{"code":"266","description":null,"id":266,"isclosed":false,"ispublic":true,"latitude":-37.431028,"longitude":143.382284,"name":"Beaufort & Skipton Health Service [Beaufort]","peer":null,"phncode":206,"phnname":"Western Victoria","state":"Vic"},{"code":"267","description":null,"id":267,"isclosed":false,"ispublic":true,"latitude":-36.449887,"longitude":142.024286,"name":"Dimboola District Hospital","peer":null,"phncode":206,"phnname":"Western Victoria","state":"Vic"},{"code":"268","description":null,"id":268,"isclosed":false,"ispublic":true,"latitude":-37.035323,"longitude":141.288829,"name":"Edenhope and District Memorial Hospital","peer":null,"phncode":206,"phnname":"Western Victoria","state":"Vic"},{"code":"269","description":null,"id":269,"isclosed":false,"ispublic":true,"latitude":-37.686449,"longitude":144.558284,"name":"Melton Health","peer":null,"phncode":201,"phnname":"North Western Melbourne","state":"Vic"},{"code":"270","description":null,"id":270,"isclosed":false,"ispublic":true,"latitude":-37.337365,"longitude":144.145774,"name":"Daylesford District Hospital","peer":null,"phncode":206,"phnname":"Western Victoria","state":"Vic"},{"code":"271","description":null,"id":271,"isclosed":false,"ispublic":true,"latitude":-37.421192,"longitude":143.891533,"name":"Creswick District Hospital","peer":null,"phncode":206,"phnname":"Western Victoria","state":"Vic"},{"code":"272","description":null,"id":272,"isclosed":false,"ispublic":true,"latitude":-36.748727,"longitude":144.283372,"name":"The Bendigo Hospital","peer":null,"phncode":205,"phnname":"Murray","state":"Vic"},{"code":"273","description":null,"id":273,"isclosed":false,"ispublic":true,"latitude":-36.750919,"longitude":144.280399,"name":"Bendigo Health Care Group [Anne Caudle]","peer":null,"phncode":205,"phnname":"Murray","state":"Vic"},{"code":"274","description":null,"id":274,"isclosed":false,"ispublic":true,"latitude":-36.587827,"longitude":145.008593,"name":"Goulburn Valley Health [Waranga]","peer":null,"phncode":205,"phnname":"Murray","state":"Vic"},{"code":"275","description":null,"id":275,"isclosed":false,"ispublic":true,"latitude":-36.315539,"longitude":145.042705,"name":"Kyabram & District Health Service","peer":null,"phncode":205,"phnname":"Murray","state":"Vic"},{"code":"276","description":null,"id":276,"isclosed":false,"ispublic":true,"latitude":-37.254431,"longitude":144.469742,"name":"Kyneton District Health Service","peer":null,"phncode":205,"phnname":"Murray","state":"Vic"},{"code":"277","description":null,"id":277,"isclosed":false,"ispublic":true,"latitude":-36.925786,"longitude":144.709499,"name":"Heathcote Health","peer":null,"phncode":205,"phnname":"Murray","state":"Vic"},{"code":"278","description":null,"id":278,"isclosed":false,"ispublic":true,"latitude":-37.044781,"longitude":143.737692,"name":"Maryborough District Health Service [Maryborough]","peer":null,"phncode":206,"phnname":"Western Victoria","state":"Vic"},{"code":"279","description":null,"id":279,"isclosed":false,"ispublic":true,"latitude":-36.855269,"longitude":143.735139,"name":"Maryborough District Health Service [Dunolly]","peer":null,"phncode":206,"phnname":"Western Victoria","state":"Vic"},{"code":"280","description":null,"id":280,"isclosed":false,"ispublic":true,"latitude":-35.340588,"longitude":143.556514,"name":"Swan Hill District Health [Swan Hill]","peer":null,"phncode":205,"phnname":"Murray","state":"Vic"},{"code":"281","description":null,"id":281,"isclosed":false,"ispublic":true,"latitude":-35.186052,"longitude":143.355428,"name":"Swan Hill District Health [Nyah]","peer":null,"phncode":205,"phnname":"Murray","state":"Vic"},{"code":"282","description":null,"id":282,"isclosed":false,"ispublic":true,"latitude":-36.078447,"longitude":143.233779,"name":"East Wimmera Health Service [Wycheproof]","peer":null,"phncode":205,"phnname":"Murray","state":"Vic"},{"code":"283","description":null,"id":283,"isclosed":false,"ispublic":true,"latitude":-35.800063,"longitude":144.214911,"name":"Cohuna District Hospital","peer":null,"phncode":205,"phnname":"Murray","state":"Vic"},{"code":"284","description":null,"id":284,"isclosed":false,"ispublic":true,"latitude":-36.138186,"longitude":144.748369,"name":"Echuca Regional Health","peer":null,"phncode":205,"phnname":"Murray","state":"Vic"},{"code":"285","description":null,"id":285,"isclosed":false,"ispublic":true,"latitude":-35.724287,"longitude":143.916563,"name":"Kerang District Health","peer":null,"phncode":205,"phnname":"Murray","state":"Vic"},{"code":"286","description":null,"id":286,"isclosed":false,"ispublic":true,"latitude":-34.185634,"longitude":142.143348,"name":"Mildura Base Hospital","peer":null,"phncode":205,"phnname":"Murray","state":"Vic"},{"code":"287","description":null,"id":287,"isclosed":false,"ispublic":true,"latitude":-35.074349,"longitude":142.312345,"name":"Mallee Track Health & Community Service [Ouyen]","peer":null,"phncode":205,"phnname":"Murray","state":"Vic"},{"code":"288","description":null,"id":288,"isclosed":false,"ispublic":true,"latitude":-36.992672,"longitude":144.063677,"name":"Maldon Hospital","peer":null,"phncode":205,"phnname":"Murray","state":"Vic"},{"code":"289","description":null,"id":289,"isclosed":false,"ispublic":true,"latitude":-35.050955,"longitude":142.880512,"name":"Manangatang & District Hospital","peer":null,"phncode":205,"phnname":"Murray","state":"Vic"},{"code":"290","description":null,"id":290,"isclosed":false,"ispublic":true,"latitude":-36.111703,"longitude":143.727285,"name":"Boort District Health","peer":null,"phncode":205,"phnname":"Murray","state":"Vic"},{"code":"291","description":null,"id":291,"isclosed":false,"ispublic":true,"latitude":-34.584146,"longitude":142.781367,"name":"Robinvale District Health Services","peer":null,"phncode":205,"phnname":"Murray","state":"Vic"},{"code":"292","description":null,"id":292,"isclosed":false,"ispublic":true,"latitude":-36.366579,"longitude":144.697751,"name":"Rochester & Elmore District Health Service","peer":null,"phncode":205,"phnname":"Murray","state":"Vic"},{"code":"293","description":null,"id":293,"isclosed":false,"ispublic":true,"latitude":-36.366895,"longitude":142.976583,"name":"East Wimmera Health Service [Donald]","peer":null,"phncode":205,"phnname":"Murray","state":"Vic"},{"code":"294","description":null,"id":294,"isclosed":false,"ispublic":true,"latitude":-36.572147,"longitude":143.873755,"name":"Inglewood & District Health Service","peer":null,"phncode":205,"phnname":"Murray","state":"Vic"},{"code":"295","description":null,"id":295,"isclosed":false,"ispublic":true,"latitude":-35.980167,"longitude":142.915891,"name":"East Wimmera Health Service [Birchip]","peer":null,"phncode":205,"phnname":"Murray","state":"Vic"},{"code":"296","description":null,"id":296,"isclosed":false,"ispublic":true,"latitude":-36.271037,"longitude":143.345889,"name":"East Wimmera Health Service [Charlton]","peer":null,"phncode":205,"phnname":"Murray","state":"Vic"},{"code":"297","description":null,"id":297,"isclosed":false,"ispublic":true,"latitude":-37.052539,"longitude":144.212315,"name":"Castlemaine Health","peer":null,"phncode":205,"phnname":"Murray","state":"Vic"},{"code":"298","description":null,"id":298,"isclosed":false,"ispublic":true,"latitude":-36.363625,"longitude":145.404911,"name":"Goulburn Valley Health [Shepparton]","peer":null,"phncode":205,"phnname":"Murray","state":"Vic"},{"code":"299","description":null,"id":299,"isclosed":false,"ispublic":true,"latitude":-36.439082,"longitude":145.225535,"name":"Goulburn Valley Health [Tatura]","peer":null,"phncode":205,"phnname":"Murray","state":"Vic"},{"code":"300","description":null,"id":300,"isclosed":false,"ispublic":true,"latitude":-36.354035,"longitude":146.313889,"name":"Northeast Health Wangaratta","peer":null,"phncode":205,"phnname":"Murray","state":"Vic"},{"code":"301","description":null,"id":301,"isclosed":false,"ispublic":true,"latitude":-36.213705,"longitude":147.183709,"name":"Tallangatta Health Service","peer":null,"phncode":205,"phnname":"Murray","state":"Vic"},{"code":"302","description":null,"id":302,"isclosed":false,"ispublic":true,"latitude":-36.131791,"longitude":146.879417,"name":"Albury Wodonga Health [Wodonga Campus]","peer":null,"phncode":205,"phnname":"Murray","state":"Vic"},{"code":"303","description":null,"id":303,"isclosed":false,"ispublic":true,"latitude":-36.011547,"longitude":146.006584,"name":"Yarrawonga Health","peer":null,"phncode":205,"phnname":"Murray","state":"Vic"},{"code":"304","description":null,"id":304,"isclosed":false,"ispublic":true,"latitude":-36.554525,"longitude":146.728795,"name":"Alpine Health [Myrtleford]","peer":null,"phncode":205,"phnname":"Murray","state":"Vic"},{"code":"305","description":null,"id":305,"isclosed":false,"ispublic":true,"latitude":-36.732701,"longitude":146.965924,"name":"Alpine Health [Bright]","peer":null,"phncode":205,"phnname":"Murray","state":"Vic"},{"code":"306","description":null,"id":306,"isclosed":false,"ispublic":true,"latitude":-36.743354,"longitude":147.169359,"name":"Alpine Health [Mount Beauty]","peer":null,"phncode":205,"phnname":"Murray","state":"Vic"},{"code":"307","description":null,"id":307,"isclosed":false,"ispublic":true,"latitude":-36.198711,"longitude":147.902798,"name":"Corryong Health","peer":null,"phncode":205,"phnname":"Murray","state":"Vic"},{"code":"308","description":null,"id":308,"isclosed":false,"ispublic":true,"latitude":-37.018384,"longitude":145.138771,"name":"Seymour District Memorial Hospital","peer":null,"phncode":205,"phnname":"Murray","state":"Vic"},{"code":"309","description":null,"id":309,"isclosed":false,"ispublic":true,"latitude":-37.057574,"longitude":146.086149,"name":"Mansfield District Hospital","peer":null,"phncode":205,"phnname":"Murray","state":"Vic"},{"code":"310","description":null,"id":310,"isclosed":false,"ispublic":true,"latitude":-37.195065,"longitude":145.716143,"name":"Alexandra District Hospital","peer":null,"phncode":205,"phnname":"Murray","state":"Vic"},{"code":"311","description":null,"id":311,"isclosed":false,"ispublic":true,"latitude":-36.100001,"longitude":145.443695,"name":"Numurkah & District Health Service","peer":null,"phncode":205,"phnname":"Murray","state":"Vic"},{"code":"312","description":null,"id":312,"isclosed":false,"ispublic":true,"latitude":-37.301794,"longitude":144.957915,"name":"The Kilmore & District Hospital","peer":null,"phncode":205,"phnname":"Murray","state":"Vic"},{"code":"313","description":null,"id":313,"isclosed":false,"ispublic":true,"latitude":-37.213634,"longitude":145.430724,"name":"Yea & District Memorial Hospital","peer":null,"phncode":205,"phnname":"Murray","state":"Vic"},{"code":"314","description":null,"id":314,"isclosed":false,"ispublic":true,"latitude":-36.054754,"longitude":145.204324,"name":"Nathalia District Hospital","peer":null,"phncode":205,"phnname":"Murray","state":"Vic"},{"code":"315","description":null,"id":315,"isclosed":false,"ispublic":true,"latitude":-36.555239,"longitude":145.994675,"name":"Benalla & District Memorial Hospital","peer":null,"phncode":205,"phnname":"Murray","state":"Vic"},{"code":"316","description":null,"id":316,"isclosed":false,"ispublic":true,"latitude":-36.349359,"longitude":146.690739,"name":"Beechworth Health Service","peer":null,"phncode":205,"phnname":"Murray","state":"Vic"},{"code":"317","description":null,"id":317,"isclosed":false,"ispublic":true,"latitude":-35.916273,"longitude":145.651029,"name":"Cobram District Health","peer":null,"phncode":205,"phnname":"Murray","state":"Vic"},{"code":"318","description":null,"id":318,"isclosed":false,"ispublic":true,"latitude":-37.830814,"longitude":147.607905,"name":"Bairnsdale Regional Health Service","peer":null,"phncode":204,"phnname":"Gippsland","state":"Vic"},{"code":"319","description":null,"id":319,"isclosed":false,"ispublic":true,"latitude":-38.173009,"longitude":145.926804,"name":"West Gippsland Healthcare Group [Warragul]","peer":null,"phncode":204,"phnname":"Gippsland","state":"Vic"},{"code":"320","description":null,"id":320,"isclosed":false,"ispublic":true,"latitude":-38.608747,"longitude":145.580906,"name":"Bass Coast Health","peer":null,"phncode":204,"phnname":"Gippsland","state":"Vic"},{"code":"321","description":null,"id":321,"isclosed":false,"ispublic":true,"latitude":-38.556975,"longitude":146.678316,"name":"Yarram & District Health Service","peer":null,"phncode":204,"phnname":"Gippsland","state":"Vic"},{"code":"322","description":null,"id":322,"isclosed":false,"ispublic":true,"latitude":-37.098142,"longitude":147.597321,"name":"Omeo District Health","peer":null,"phncode":204,"phnname":"Gippsland","state":"Vic"},{"code":"323","description":null,"id":323,"isclosed":false,"ispublic":true,"latitude":-38.108408,"longitude":147.080637,"name":"Central Gippsland Health Service [Sale]","peer":null,"phncode":204,"phnname":"Gippsland","state":"Vic"},{"code":"324","description":null,"id":324,"isclosed":false,"ispublic":true,"latitude":-38.430328,"longitude":145.828249,"name":"Gippsland Southern Health Service - Korumburra","peer":null,"phncode":204,"phnname":"Gippsland","state":"Vic"},{"code":"325","description":null,"id":325,"isclosed":false,"ispublic":true,"latitude":-38.487171,"longitude":145.950343,"name":"Gippsland Southern Health Service - Leongatha","peer":null,"phncode":204,"phnname":"Gippsland","state":"Vic"},{"code":"326","description":null,"id":326,"isclosed":false,"ispublic":true,"latitude":-38.218475,"longitude":146.471335,"name":"Latrobe Regional Hospital [Traralgon]","peer":null,"phncode":204,"phnname":"Gippsland","state":"Vic"},{"code":"327","description":null,"id":327,"isclosed":false,"ispublic":true,"latitude":-37.961032,"longitude":146.983487,"name":"Central Gippsland Health Service [Maffra]","peer":null,"phncode":204,"phnname":"Gippsland","state":"Vic"},{"code":"328","description":null,"id":328,"isclosed":false,"ispublic":true,"latitude":-38.658319,"longitude":146.207031,"name":"South Gippsland Hospital [Foster]","peer":null,"phncode":204,"phnname":"Gippsland","state":"Vic"},{"code":"329","description":null,"id":329,"isclosed":false,"ispublic":true,"latitude":-37.701844,"longitude":148.464957,"name":"Orbost Regional Health","peer":null,"phncode":204,"phnname":"Gippsland","state":"Vic"},{"code":"330","description":null,"id":330,"isclosed":false,"ispublic":true,"latitude":-37.813682,"longitude":145.119094,"name":"Box Hill Hospital","peer":null,"phncode":202,"phnname":"Eastern Melbourne","state":"Vic"},{"code":"331","description":null,"id":331,"isclosed":false,"ispublic":true,"latitude":-37.9275697,"longitude":145.1587291,"name":"Monash Medical Centre [Clayton]","peer":null,"phncode":202,"phnname":"Eastern Melbourne","state":"Vic"},{"code":"332","description":null,"id":332,"isclosed":false,"ispublic":true,"latitude":-37.806884,"longitude":145.254535,"name":"Maroondah Hospital [East Ringwood]","peer":null,"phncode":202,"phnname":"Eastern Melbourne","state":"Vic"},{"code":"333","description":null,"id":333,"isclosed":false,"ispublic":true,"latitude":-37.898663,"longitude":145.314166,"name":"Angliss Hospital","peer":null,"phncode":202,"phnname":"Eastern Melbourne","state":"Vic"},{"code":"334","description":null,"id":334,"isclosed":false,"ispublic":true,"latitude":-37.809085,"longitude":145.052585,"name":"St George's Health Service- Aged Care","peer":null,"phncode":202,"phnname":"Eastern Melbourne","state":"Vic"},{"code":"335","description":null,"id":335,"isclosed":false,"ispublic":true,"latitude":-37.804706,"longitude":145.015557,"name":"Caritas Christi Hospice [Kew]","peer":null,"phncode":202,"phnname":"Eastern Melbourne","state":"Vic"},{"code":"336","description":null,"id":336,"isclosed":false,"ispublic":true,"latitude":-37.816688,"longitude":145.061729,"name":"Mercy Health - O'Connell Family Centre","peer":null,"phncode":202,"phnname":"Eastern Melbourne","state":"Vic"},{"code":"337","description":null,"id":337,"isclosed":false,"ispublic":true,"latitude":-37.852712,"longitude":145.164542,"name":"The Peter James Centre [East Burwood]","peer":null,"phncode":202,"phnname":"Eastern Melbourne","state":"Vic"},{"code":"338","description":null,"id":338,"isclosed":false,"ispublic":true,"latitude":-37.848525,"longitude":145.225902,"name":"Wantirna Health","peer":null,"phncode":202,"phnname":"Eastern Melbourne","state":"Vic"},{"code":"339","description":null,"id":339,"isclosed":false,"ispublic":true,"latitude":-37.789522,"longitude":145.023715,"name":"Royal Talbot Rehabilitation Centre [Kew]","peer":null,"phncode":202,"phnname":"Eastern Melbourne","state":"Vic"},{"code":"340","description":null,"id":340,"isclosed":false,"ispublic":true,"latitude":-37.646879,"longitude":145.529032,"name":"Healesville Hospital and Yarra Valley Health","peer":null,"phncode":202,"phnname":"Eastern Melbourne","state":"Vic"},{"code":"341","description":null,"id":341,"isclosed":false,"ispublic":true,"latitude":-37.756319,"longitude":145.351204,"name":"Yarra Ranges Health","peer":null,"phncode":202,"phnname":"Eastern Melbourne","state":"Vic"},{"code":"342","description":null,"id":342,"isclosed":false,"ispublic":true,"latitude":-37.920697,"longitude":145.063197,"name":"Monash Medical Centre [Moorabbin]","peer":null,"phncode":203,"phnname":"South Eastern Melbourne","state":"Vic"},{"code":"343","description":null,"id":343,"isclosed":false,"ispublic":true,"latitude":-38.362168,"longitude":144.884899,"name":"Rosebud Hospital","peer":null,"phncode":203,"phnname":"South Eastern Melbourne","state":"Vic"},{"code":"344","description":null,"id":344,"isclosed":false,"ispublic":true,"latitude":-37.961049,"longitude":145.018157,"name":"Sandringham Hospital","peer":null,"phncode":203,"phnname":"South Eastern Melbourne","state":"Vic"},{"code":"345","description":null,"id":345,"isclosed":false,"ispublic":true,"latitude":-37.882707,"longitude":145.016892,"name":"Caulfield Hospital","peer":null,"phncode":203,"phnname":"South Eastern Melbourne","state":"Vic"},{"code":"346","description":null,"id":346,"isclosed":false,"ispublic":true,"latitude":-38.200653,"longitude":145.484433,"name":"Kooweerup Regional Health Service","peer":null,"phncode":203,"phnname":"South Eastern Melbourne","state":"Vic"},{"code":"347","description":null,"id":347,"isclosed":false,"ispublic":true,"latitude":-37.955018,"longitude":145.078969,"name":"Kingston Centre [Cheltenham]","peer":null,"phncode":203,"phnname":"South Eastern Melbourne","state":"Vic"},{"code":"348","description":null,"id":348,"isclosed":false,"ispublic":true,"latitude":-37.976459,"longitude":145.218529,"name":"Dandenong Hospital","peer":null,"phncode":203,"phnname":"South Eastern Melbourne","state":"Vic"},{"code":"349","description":null,"id":349,"isclosed":false,"ispublic":true,"latitude":-38.113312,"longitude":145.280832,"name":"Cranbourne Integrated Care Centre","peer":null,"phncode":203,"phnname":"South Eastern Melbourne","state":"Vic"},{"code":"350","description":null,"id":350,"isclosed":false,"ispublic":true,"latitude":-38.150791,"longitude":145.128428,"name":"Frankston Hospital","peer":null,"phncode":203,"phnname":"South Eastern Melbourne","state":"Vic"},{"code":"351","description":null,"id":351,"isclosed":false,"ispublic":true,"latitude":-37.896962,"longitude":145.013415,"name":"Calvary Health Care Bethlehem","peer":null,"phncode":203,"phnname":"South Eastern Melbourne","state":"Vic"},{"code":"352","description":null,"id":352,"isclosed":false,"ispublic":true,"latitude":-37.972053,"longitude":145.178285,"name":"Queen Elizabeth Centre [Noble Park]","peer":null,"phncode":203,"phnname":"South Eastern Melbourne","state":"Vic"},{"code":"353","description":null,"id":353,"isclosed":false,"ispublic":true,"latitude":-38.045325,"longitude":145.347181,"name":"Casey Hospital","peer":null,"phncode":203,"phnname":"South Eastern Melbourne","state":"Vic"},{"code":"354","description":null,"id":354,"isclosed":true,"ispublic":true,"latitude":null,"longitude":null,"name":"Mount Eliza Aged Care & Rehabilitation Service","peer":null,"phncode":203,"phnname":"South Eastern Melbourne","state":"Vic"},{"code":"355","description":null,"id":355,"isclosed":true,"ispublic":true,"latitude":null,"longitude":null,"name":"Rosebud Rehabilitation Unit","peer":null,"phncode":203,"phnname":"South Eastern Melbourne","state":"Vic"},{"code":"356","description":null,"id":356,"isclosed":false,"ispublic":true,"latitude":-38.173447,"longitude":145.149769,"name":"Golf Links Road Rehabilitation Centre","peer":null,"phncode":203,"phnname":"South Eastern Melbourne","state":"Vic"},{"code":"357","description":null,"id":357,"isclosed":false,"ispublic":true,"latitude":-38.230174,"longitude":145.041697,"name":"The Mornington Centre","peer":null,"phncode":203,"phnname":"South Eastern Melbourne","state":"Vic"},{"code":"358","description":null,"id":358,"isclosed":false,"ispublic":true,"latitude":-37.846087,"longitude":144.981937,"name":"The Alfred","peer":null,"phncode":201,"phnname":"North Western Melbourne","state":"Vic"},{"code":"359","description":null,"id":359,"isclosed":false,"ispublic":true,"latitude":-37.756355,"longitude":145.060236,"name":"Austin Hospital [Heidelberg]","peer":null,"phncode":202,"phnname":"Eastern Melbourne","state":"Vic"},{"code":"360","description":null,"id":360,"isclosed":false,"ispublic":true,"latitude":-37.755973,"longitude":145.04749,"name":"Heidelberg Repatriation Hospital [Heidelberg West]","peer":null,"phncode":202,"phnname":"Eastern Melbourne","state":"Vic"},{"code":"361","description":null,"id":361,"isclosed":false,"ispublic":true,"latitude":-37.701124,"longitude":145.055569,"name":"Bundoora Extended Care Centre","peer":null,"phncode":201,"phnname":"North Western Melbourne","state":"Vic"},{"code":"362","description":null,"id":362,"isclosed":false,"ispublic":true,"latitude":-37.756075,"longitude":145.061008,"name":"Mercy Hospital for Women","peer":null,"phncode":202,"phnname":"Eastern Melbourne","state":"Vic"},{"code":"363","description":null,"id":363,"isclosed":false,"ispublic":true,"latitude":-37.792298,"longitude":144.887191,"name":"Western Hospital [Footscray]","peer":null,"phncode":201,"phnname":"North Western Melbourne","state":"Vic"},{"code":"364","description":null,"id":364,"isclosed":false,"ispublic":true,"latitude":-37.794997,"longitude":144.950859,"name":"Royal Children's Hospital [Parkville]","peer":null,"phncode":201,"phnname":"North Western Melbourne","state":"Vic"},{"code":"365","description":null,"id":365,"isclosed":true,"ispublic":true,"latitude":null,"longitude":null,"name":"Royal Children's Hospital [Travancore Psych]","peer":null,"phncode":201,"phnname":"North Western Melbourne","state":"Vic"},{"code":"366","description":null,"id":366,"isclosed":false,"ispublic":true,"latitude":-37.798772,"longitude":144.954825,"name":"Royal Women's Hospital [Parkville]","peer":null,"phncode":201,"phnname":"North Western Melbourne","state":"Vic"},{"code":"367","description":null,"id":367,"isclosed":false,"ispublic":true,"latitude":-37.808978,"longitude":144.976245,"name":"The Royal Victorian Eye & Ear Hospital","peer":null,"phncode":201,"phnname":"North Western Melbourne","state":"Vic"},{"code":"368","description":null,"id":368,"isclosed":false,"ispublic":true,"latitude":-37.653417,"longitude":145.014381,"name":"The Northern Hospital [Epping]","peer":null,"phncode":202,"phnname":"Eastern Melbourne","state":"Vic"},{"code":"369","description":null,"id":369,"isclosed":false,"ispublic":true,"latitude":-37.886587,"longitude":144.698621,"name":"Werribee Mercy Hospital","peer":null,"phncode":201,"phnname":"North Western Melbourne","state":"Vic"},{"code":"370","description":null,"id":370,"isclosed":false,"ispublic":true,"latitude":-37.791926,"longitude":144.886617,"name":"Orygen Inpatient Unit","peer":null,"phncode":201,"phnname":"North Western Melbourne","state":"Vic"},{"code":"371","description":null,"id":371,"isclosed":false,"ispublic":true,"latitude":-37.799259,"longitude":144.956864,"name":"Royal Melbourne Hospital [City Campus]","peer":null,"phncode":201,"phnname":"North Western Melbourne","state":"Vic"},{"code":"372","description":null,"id":372,"isclosed":false,"ispublic":true,"latitude":-37.778813,"longitude":144.948049,"name":"Royal Melbourne Hospital [Royal Park Campus]","peer":null,"phncode":201,"phnname":"North Western Melbourne","state":"Vic"},{"code":"373","description":null,"id":373,"isclosed":false,"ispublic":true,"latitude":-37.759179,"longitude":144.816477,"name":"Sunshine Hospital","peer":null,"phncode":201,"phnname":"North Western Melbourne","state":"Vic"},{"code":"374","description":null,"id":374,"isclosed":false,"ispublic":true,"latitude":-37.806545,"longitude":144.975231,"name":"St Vincent's Hospital [Melbourne]","peer":null,"phncode":201,"phnname":"North Western Melbourne","state":"Vic"},{"code":"375","description":null,"id":375,"isclosed":false,"ispublic":true,"latitude":-37.863576,"longitude":144.892339,"name":"Williamstown Hospital","peer":null,"phncode":201,"phnname":"North Western Melbourne","state":"Vic"},{"code":"376","description":null,"id":376,"isclosed":false,"ispublic":true,"latitude":-37.80001,"longitude":144.956607,"name":"Peter MacCallum Cancer Centre","peer":null,"phncode":201,"phnname":"North Western Melbourne","state":"Vic"},{"code":"377","description":null,"id":377,"isclosed":false,"ispublic":true,"latitude":-37.797407,"longitude":144.887421,"name":"Tweddle Child & Family Health Centre [Footscray]","peer":null,"phncode":201,"phnname":"North Western Melbourne","state":"Vic"},{"code":"378","description":null,"id":378,"isclosed":false,"ispublic":true,"latitude":-37.576998,"longitude":144.732674,"name":"Sunbury Day Hospital","peer":null,"phncode":201,"phnname":"North Western Melbourne","state":"Vic"},{"code":"379","description":null,"id":379,"isclosed":false,"ispublic":true,"latitude":-37.684321,"longitude":144.913106,"name":"Broadmeadows Health Service","peer":null,"phncode":201,"phnname":"North Western Melbourne","state":"Vic"},{"code":"380","description":null,"id":380,"isclosed":false,"ispublic":true,"latitude":-37.596015,"longitude":144.91928,"name":"Craigieburn Health Service","peer":null,"phncode":201,"phnname":"North Western Melbourne","state":"Vic"},{"code":"381","description":null,"id":381,"isclosed":false,"ispublic":true,"latitude":-37.799299,"longitude":144.964529,"name":"The Royal Dental Hospital of Melbourne","peer":null,"phncode":201,"phnname":"North Western Melbourne","state":"Vic"},{"code":"382","description":null,"id":382,"isclosed":false,"ispublic":true,"latitude":-36.078401,"longitude":146.939146,"name":"Albury Wodonga Health [Albury Campus]","peer":null,"phncode":205,"phnname":"Murray","state":"NSW"},{"code":"383","description":null,"id":383,"isclosed":false,"ispublic":true,"latitude":-37.78931,"longitude":145.012975,"name":"Victorian Institute of Forensic Mental Health","peer":null,"phncode":201,"phnname":"North Western Melbourne","state":"Vic"},{"code":"384","description":null,"id":384,"isclosed":false,"ispublic":true,"latitude":-37.812763,"longitude":144.950757,"name":"Victorian Institute of Forensic Mental Health Prison Health Service","peer":null,"phncode":201,"phnname":"North Western Melbourne","state":"Vic"},{"code":"385","description":null,"id":385,"isclosed":false,"ispublic":true,"latitude":-27.485488,"longitude":153.028103,"name":"Mater Adult Hospital","peer":null,"phncode":302,"phnname":"Brisbane South","state":"Qld"},{"code":"386","description":null,"id":386,"isclosed":true,"ispublic":true,"latitude":null,"longitude":null,"name":"Mater Children's Hospital","peer":null,"phncode":302,"phnname":"Brisbane South","state":"Qld"},{"code":"387","description":null,"id":387,"isclosed":false,"ispublic":true,"latitude":-27.485436,"longitude":153.027001,"name":"Mater Mothers' Hospital","peer":null,"phncode":302,"phnname":"Brisbane South","state":"Qld"},{"code":"388","description":null,"id":388,"isclosed":false,"ispublic":true,"latitude":-27.390497,"longitude":153.021955,"name":"The Prince Charles Hospital","peer":null,"phncode":301,"phnname":"Brisbane North","state":"Qld"},{"code":"389","description":null,"id":389,"isclosed":true,"ispublic":true,"latitude":null,"longitude":null,"name":"Royal Children's Hospital [Queensland]","peer":null,"phncode":301,"phnname":"Brisbane North","state":"Qld"},{"code":"390","description":null,"id":390,"isclosed":false,"ispublic":true,"latitude":-27.499402,"longitude":153.033542,"name":"Princess Alexandra Hospital","peer":null,"phncode":302,"phnname":"Brisbane South","state":"Qld"},{"code":"391","description":null,"id":391,"isclosed":false,"ispublic":true,"latitude":-27.619465,"longitude":152.759313,"name":"Ipswich Hospital","peer":null,"phncode":304,"phnname":"Darling Downs and West Moreton","state":"Qld"},{"code":"392","description":null,"id":392,"isclosed":false,"ispublic":true,"latitude":-27.228269,"longitude":153.105245,"name":"Redcliffe Hospital","peer":null,"phncode":301,"phnname":"Brisbane North","state":"Qld"},{"code":"393","description":null,"id":393,"isclosed":false,"ispublic":true,"latitude":-27.385905,"longitude":153.025152,"name":"Ellen Barron Family Centre","peer":null,"phncode":301,"phnname":"Brisbane North","state":"Qld"},{"code":"394","description":null,"id":394,"isclosed":false,"ispublic":true,"latitude":-27.559673,"longitude":153.048852,"name":"Queen Elizabeth II Jubilee Hospital","peer":null,"phncode":302,"phnname":"Brisbane South","state":"Qld"},{"code":"395","description":null,"id":395,"isclosed":true,"ispublic":true,"latitude":null,"longitude":null,"name":"Wynnum Health Service","peer":null,"phncode":302,"phnname":"Brisbane South","state":"Qld"},{"code":"397","description":null,"id":397,"isclosed":false,"ispublic":true,"latitude":-27.539992,"longitude":153.251379,"name":"Redland Hospital","peer":null,"phncode":302,"phnname":"Brisbane South","state":"Qld"},{"code":"398","description":null,"id":398,"isclosed":false,"ispublic":true,"latitude":-27.670169,"longitude":153.141732,"name":"Logan Hospital","peer":null,"phncode":302,"phnname":"Brisbane South","state":"Qld"},{"code":"399","description":null,"id":399,"isclosed":false,"ispublic":true,"latitude":-27.080776,"longitude":152.963623,"name":"Caboolture Hospital","peer":null,"phncode":301,"phnname":"Brisbane North","state":"Qld"},{"code":"400","description":null,"id":400,"isclosed":false,"ispublic":true,"latitude":-27.984869,"longitude":153.002536,"name":"Beaudesert Hospital","peer":null,"phncode":302,"phnname":"Brisbane South","state":"Qld"},{"code":"401","description":null,"id":401,"isclosed":false,"ispublic":true,"latitude":-27.999128,"longitude":152.678943,"name":"Boonah Hospital","peer":null,"phncode":304,"phnname":"Darling Downs and West Moreton","state":"Qld"},{"code":"402","description":null,"id":402,"isclosed":false,"ispublic":true,"latitude":-26.800582,"longitude":153.119759,"name":"Caloundra Hospital","peer":null,"phncode":306,"phnname":"Central Queensland, Wide Bay and Sunshine Coast","state":"Qld"},{"code":"403","description":null,"id":403,"isclosed":false,"ispublic":true,"latitude":-27.240398,"longitude":152.418179,"name":"Esk Hospital","peer":null,"phncode":304,"phnname":"Darling Downs and West Moreton","state":"Qld"},{"code":"404","description":null,"id":404,"isclosed":false,"ispublic":true,"latitude":-27.566778,"longitude":152.276269,"name":"Gatton Hospital","peer":null,"phncode":304,"phnname":"Darling Downs and West Moreton","state":"Qld"},{"code":"405","description":null,"id":405,"isclosed":false,"ispublic":true,"latitude":-26.941009,"longitude":152.561495,"name":"Kilcoy Hospital","peer":null,"phncode":301,"phnname":"Brisbane North","state":"Qld"},{"code":"406","description":null,"id":406,"isclosed":false,"ispublic":true,"latitude":-27.632725,"longitude":152.400015,"name":"Laidley Hospital","peer":null,"phncode":304,"phnname":"Darling Downs and West Moreton","state":"Qld"},{"code":"407","description":null,"id":407,"isclosed":false,"ispublic":true,"latitude":-26.754893,"longitude":152.844972,"name":"Maleny Hospital","peer":null,"phncode":306,"phnname":"Central Queensland, Wide Bay and Sunshine Coast","state":"Qld"},{"code":"408","description":null,"id":408,"isclosed":false,"ispublic":true,"latitude":-26.621659,"longitude":152.952249,"name":"Nambour General Hospital","peer":null,"phncode":306,"phnname":"Central Queensland, Wide Bay and Sunshine Coast","state":"Qld"},{"code":"409","description":null,"id":409,"isclosed":false,"ispublic":true,"latitude":-27.958896,"longitude":153.381173,"name":"Gold Coast University Hospital","peer":null,"phncode":303,"phnname":"Gold Coast","state":"Qld"},{"code":"410","description":null,"id":410,"isclosed":false,"ispublic":true,"latitude":-25.506406,"longitude":152.051099,"name":"Biggenden Hospital","peer":null,"phncode":306,"phnname":"Central Queensland, Wide Bay and Sunshine Coast","state":"Qld"},{"code":"411","description":null,"id":411,"isclosed":false,"ispublic":true,"latitude":-24.868877,"longitude":152.336157,"name":"Bundaberg Base Hospital","peer":null,"phncode":306,"phnname":"Central Queensland, Wide Bay and Sunshine Coast","state":"Qld"},{"code":"412","description":null,"id":412,"isclosed":false,"ispublic":true,"latitude":-26.291519,"longitude":151.956324,"name":"Cherbourg Hospital","peer":null,"phncode":304,"phnname":"Darling Downs and West Moreton","state":"Qld"},{"code":"413","description":null,"id":413,"isclosed":false,"ispublic":true,"latitude":-25.239416,"longitude":152.273286,"name":"Childers Hospital","peer":null,"phncode":306,"phnname":"Central Queensland, Wide Bay and Sunshine Coast","state":"Qld"},{"code":"414","description":null,"id":414,"isclosed":false,"ispublic":true,"latitude":-25.382639,"longitude":151.125494,"name":"Eidsvold Hospital","peer":null,"phncode":306,"phnname":"Central Queensland, Wide Bay and Sunshine Coast","state":"Qld"},{"code":"415","description":null,"id":415,"isclosed":false,"ispublic":true,"latitude":-25.631384,"longitude":151.604531,"name":"Gayndah Hospital","peer":null,"phncode":306,"phnname":"Central Queensland, Wide Bay and Sunshine Coast","state":"Qld"},{"code":"416","description":null,"id":416,"isclosed":false,"ispublic":true,"latitude":-24.985707,"longitude":151.953449,"name":"Gin Gin Hospital","peer":null,"phncode":306,"phnname":"Central Queensland, Wide Bay and Sunshine Coast","state":"Qld"},{"code":"417","description":null,"id":417,"isclosed":false,"ispublic":true,"latitude":-26.184353,"longitude":152.658258,"name":"Gympie Hospital","peer":null,"phncode":306,"phnname":"Central Queensland, Wide Bay and Sunshine Coast","state":"Qld"},{"code":"418","description":null,"id":418,"isclosed":false,"ispublic":true,"latitude":-25.298697,"longitude":152.820639,"name":"Hervey Bay Hospital","peer":null,"phncode":306,"phnname":"Central Queensland, Wide Bay and Sunshine Coast","state":"Qld"},{"code":"419","description":null,"id":419,"isclosed":false,"ispublic":true,"latitude":-26.532454,"longitude":151.838307,"name":"Kingaroy Hospital","peer":null,"phncode":304,"phnname":"Darling Downs and West Moreton","state":"Qld"},{"code":"420","description":null,"id":420,"isclosed":false,"ispublic":true,"latitude":-25.522131,"longitude":152.689855,"name":"Maryborough Hospital","peer":null,"phncode":306,"phnname":"Central Queensland, Wide Bay and Sunshine Coast","state":"Qld"},{"code":"421","description":null,"id":421,"isclosed":false,"ispublic":true,"latitude":-24.866424,"longitude":151.112501,"name":"Monto Hospital","peer":null,"phncode":306,"phnname":"Central Queensland, Wide Bay and Sunshine Coast","state":"Qld"},{"code":"423","description":null,"id":423,"isclosed":false,"ispublic":true,"latitude":-25.587619,"longitude":151.293282,"name":"Mundubbera Hospital","peer":null,"phncode":306,"phnname":"Central Queensland, Wide Bay and Sunshine Coast","state":"Qld"},{"code":"424","description":null,"id":424,"isclosed":false,"ispublic":true,"latitude":-26.239075,"longitude":151.950702,"name":"Murgon Hospital","peer":null,"phncode":304,"phnname":"Darling Downs and West Moreton","state":"Qld"},{"code":"425","description":null,"id":425,"isclosed":false,"ispublic":true,"latitude":-26.666405,"longitude":152.007833,"name":"Nanango Hospital","peer":null,"phncode":304,"phnname":"Darling Downs and West Moreton","state":"Qld"},{"code":"426","description":null,"id":426,"isclosed":false,"ispublic":true,"latitude":-26.323335,"longitude":151.878658,"name":"Wondai Hospital","peer":null,"phncode":304,"phnname":"Darling Downs and West Moreton","state":"Qld"},{"code":"427","description":null,"id":427,"isclosed":false,"ispublic":true,"latitude":-26.741337,"longitude":150.634939,"name":"Chinchilla Hospital","peer":null,"phncode":304,"phnname":"Darling Downs and West Moreton","state":"Qld"},{"code":"428","description":null,"id":428,"isclosed":false,"ispublic":true,"latitude":-27.167153,"longitude":151.278905,"name":"Dalby Hospital","peer":null,"phncode":304,"phnname":"Darling Downs and West Moreton","state":"Qld"},{"code":"429","description":null,"id":429,"isclosed":false,"ispublic":true,"latitude":-28.547951,"longitude":150.302302,"name":"Goondiwindi Hospital","peer":null,"phncode":304,"phnname":"Darling Downs and West Moreton","state":"Qld"},{"code":"430","description":null,"id":430,"isclosed":false,"ispublic":true,"latitude":-28.41764722,"longitude":151.0618556,"name":"Inglewood Hospital","peer":null,"phncode":304,"phnname":"Darling Downs and West Moreton","state":"Qld"},{"code":"431","description":null,"id":431,"isclosed":false,"ispublic":true,"latitude":-26.781016,"longitude":151.105313,"name":"Jandowae Hospital","peer":null,"phncode":304,"phnname":"Darling Downs and West Moreton","state":"Qld"},{"code":"432","description":null,"id":432,"isclosed":false,"ispublic":true,"latitude":-26.658236,"longitude":150.191023,"name":"Miles Hospital","peer":null,"phncode":304,"phnname":"Darling Downs and West Moreton","state":"Qld"},{"code":"433","description":null,"id":433,"isclosed":false,"ispublic":true,"latitude":-27.878928,"longitude":151.26267,"name":"Millmerran Hospital","peer":null,"phncode":304,"phnname":"Darling Downs and West Moreton","state":"Qld"},{"code":"434","description":null,"id":434,"isclosed":false,"ispublic":true,"latitude":-27.424079,"longitude":151.719088,"name":"Oakey Hospital","peer":null,"phncode":304,"phnname":"Darling Downs and West Moreton","state":"Qld"},{"code":"435","description":null,"id":435,"isclosed":false,"ispublic":true,"latitude":-28.660927,"longitude":151.928397,"name":"Stanthorpe Hospital","peer":null,"phncode":304,"phnname":"Darling Downs and West Moreton","state":"Qld"},{"code":"436","description":null,"id":436,"isclosed":false,"ispublic":true,"latitude":-27.273674,"longitude":150.456368,"name":"Tara Hospital","peer":null,"phncode":304,"phnname":"Darling Downs and West Moreton","state":"Qld"},{"code":"437","description":null,"id":437,"isclosed":false,"ispublic":true,"latitude":-25.638818,"longitude":149.798669,"name":"Taroom Hospital","peer":null,"phncode":304,"phnname":"Darling Downs and West Moreton","state":"Qld"},{"code":"438","description":null,"id":438,"isclosed":false,"ispublic":true,"latitude":-28.855978,"longitude":151.179481,"name":"Texas Hospital","peer":null,"phncode":304,"phnname":"Darling Downs and West Moreton","state":"Qld"},{"code":"439","description":null,"id":439,"isclosed":false,"ispublic":true,"latitude":-27.569872,"longitude":151.944433,"name":"Toowoomba Hospital","peer":null,"phncode":304,"phnname":"Darling Downs and West Moreton","state":"Qld"},{"code":"440","description":null,"id":440,"isclosed":false,"ispublic":true,"latitude":-28.224275,"longitude":152.017983,"name":"Warwick Hospital","peer":null,"phncode":304,"phnname":"Darling Downs and West Moreton","state":"Qld"},{"code":"441","description":null,"id":441,"isclosed":false,"ispublic":true,"latitude":-25.796104,"longitude":146.590919,"name":"Augathella Hospital","peer":null,"phncode":305,"phnname":"Western Queensland","state":"Qld"},{"code":"442","description":null,"id":442,"isclosed":false,"ispublic":true,"latitude":-26.410455,"longitude":146.239228,"name":"Charleville Hospital","peer":null,"phncode":305,"phnname":"Western Queensland","state":"Qld"},{"code":"443","description":null,"id":443,"isclosed":false,"ispublic":true,"latitude":-28.071658,"longitude":145.690405,"name":"Cunnamulla Hospital","peer":null,"phncode":305,"phnname":"Western Queensland","state":"Qld"},{"code":"444","description":null,"id":444,"isclosed":false,"ispublic":true,"latitude":-28.579349,"longitude":148.229159,"name":"Dirranbandi Hospital","peer":null,"phncode":305,"phnname":"Western Queensland","state":"Qld"},{"code":"445","description":null,"id":445,"isclosed":false,"ispublic":true,"latitude":-25.847096,"longitude":148.562471,"name":"Injune Hospital","peer":null,"phncode":305,"phnname":"Western Queensland","state":"Qld"},{"code":"446","description":null,"id":446,"isclosed":false,"ispublic":true,"latitude":-26.489913,"longitude":147.972493,"name":"Mitchell Hospital","peer":null,"phncode":305,"phnname":"Western Queensland","state":"Qld"},{"code":"447","description":null,"id":447,"isclosed":false,"ispublic":true,"latitude":-28.972817,"longitude":148.989061,"name":"Mungindi Hospital","peer":null,"phncode":305,"phnname":"Western Queensland","state":"Qld"},{"code":"448","description":null,"id":448,"isclosed":false,"ispublic":true,"latitude":-26.616519,"longitude":144.274617,"name":"Quilpie Hospital","peer":null,"phncode":305,"phnname":"Western Queensland","state":"Qld"},{"code":"449","description":null,"id":449,"isclosed":false,"ispublic":true,"latitude":-26.568828,"longitude":148.775846,"name":"Roma Hospital","peer":null,"phncode":305,"phnname":"Western Queensland","state":"Qld"},{"code":"450","description":null,"id":450,"isclosed":false,"ispublic":true,"latitude":-28.0272,"longitude":148.5926833,"name":"St George Hospital Qld","peer":null,"phncode":305,"phnname":"Western Queensland","state":"Qld"},{"code":"451","description":null,"id":451,"isclosed":false,"ispublic":true,"latitude":-27.156595,"longitude":149.063787,"name":"Surat Hospital","peer":null,"phncode":305,"phnname":"Western Queensland","state":"Qld"},{"code":"452","description":null,"id":452,"isclosed":false,"ispublic":true,"latitude":-23.649039,"longitude":146.632962,"name":"Alpha Hospital","peer":null,"phncode":305,"phnname":"Western Queensland","state":"Qld"},{"code":"453","description":null,"id":453,"isclosed":false,"ispublic":true,"latitude":-24.184268,"longitude":149.809586,"name":"Baralaba Hospital","peer":null,"phncode":306,"phnname":"Central Queensland, Wide Bay and Sunshine Coast","state":"Qld"},